City ID,City,Cloudiness,Country,Date,Humidity,Lat,Lng,Max Temp,Wind Speed
0,Torbay,90,CA,1612483517,100,47.6666,-52.7314,42.01,2.3
1,Bonthe,2,SL,1612483657,85,7.5264,-12.505,77.59,7.43
2,Punta Arenas,0,CL,1612483657,54,-53.15,-70.9167,51.8,26.46
3,Tianpeng,0,CN,1612483657,1,30.9866,103.9393,48.0,2.39
4,Ushuaia,20,AR,1612483617,76,-54.8,-68.3,50.0,34.52
5,Tuktoyaktuk,75,CA,1612483657,74,69.4541,-133.0374,-34.6,12.66
6,Ayan,98,RU,1612483658,75,56.45,138.1667,-15.68,12.06
7,Hermanus,27,ZA,1612483658,85,-34.4187,19.2345,68.0,1.01
8,Bluff,58,NZ,1612483658,65,-46.6,168.3333,57.72,7.47
9,Severo-Kuril'sk,77,RU,1612483475,88,50.6789,156.125,11.88,10.85
10,Cidreira,45,BR,1612483401,71,-30.1811,-50.2056,69.22,15.93
11,Viedma,0,AR,1612483659,37,-40.8135,-62.9967,80.01,1.01
12,Port Alfred,16,ZA,1612483480,88,-33.5906,26.891,66.0,8.99
13,Mataura,51,NZ,1612483659,47,-46.1927,168.8643,68.94,3.42
14,Shimoda,75,JP,1612483575,65,34.6667,138.95,45.0,4.61
15,Florianópolis,75,BR,1612483634,88,-27.6146,-48.5012,73.99,2.3
16,Yar-Sale,69,RU,1612483660,87,66.8333,70.8333,-21.42,6.8
17,Chokurdakh,49,RU,1612483660,87,70.6333,147.9167,-13.02,20.04
18,Guarapari,0,BR,1612483660,83,-20.6667,-40.4975,79.0,9.22
19,Bilibino,49,RU,1612483661,78,68.0546,166.4372,-16.19,9.4
20,Busselton,0,AU,1612483661,70,-33.65,115.3333,61.0,1.01
21,San Vicente,19,AR,1612483661,85,-26.6167,-54.1333,66.27,5.1
22,Clyde River,90,CA,1612483661,76,70.4692,-68.5914,-18.4,13.8
23,Kapaa,20,US,1612483488,60,22.0752,-159.319,71.6,14.97
24,Khandyga,100,RU,1612483662,78,62.6667,135.6,-44.46,1.86
25,Hamilton,90,US,1612483425,75,39.1834,-84.5333,37.0,16.11
26,New Norfolk,78,AU,1612483662,60,-42.7826,147.0587,75.0,1.01
27,Avarua,95,CK,1612483468,70,-21.2078,-159.775,84.2,5.75
28,Chui,62,UY,1612483663,84,-33.6971,-53.4616,64.98,13.02
29,Saint Paul Harbor,1,US,1612483663,69,57.79,-152.4072,33.8,2.8
30,Muros,94,ES,1612483663,92,42.7762,-9.0603,50.0,5.66
31,Nueva Loja,84,EC,1612483441,92,0.0847,-76.8828,74.57,2.51
32,Carnarvon,100,AU,1612483391,79,-24.8667,113.6333,79.23,23.49
33,Vyazemskiy,2,RU,1612483664,82,47.5378,134.7525,-8.59,10.63
34,Hilo,75,US,1612483607,73,19.7297,-155.09,73.4,17.27
35,Dikson,100,RU,1612483480,91,73.5069,80.5464,-4.49,15.17
36,Aksay,75,RU,1612483664,93,47.26,39.87,48.0,24.61
37,Bredasdorp,76,ZA,1612483593,77,-34.5322,20.0403,68.0,6.91
38,Leningradskiy,100,RU,1612483491,85,69.3833,178.4167,-26.43,11.5
39,Alofi,75,NU,1612483473,78,-19.0595,-169.9187,82.4,10.36
40,Ponta do Sol,94,PT,1612483665,64,32.6667,-17.1,51.01,1.01
41,Rawson,0,AR,1612483666,20,-43.3002,-65.1023,85.91,25.19
42,Nouadhibou,40,MR,1612483666,88,20.931,-17.0347,64.4,5.75
43,Whitehorse,75,CA,1612483459,77,60.7161,-135.0538,-7.6,2.3
44,Urubamba,40,PE,1612483666,47,-13.3047,-72.1158,59.0,10.36
45,Muzhi,99,RU,1612483666,90,65.3667,64.6667,-11.33,5.61
46,Mpika,28,ZM,1612483667,98,-11.8343,31.4529,62.37,5.32
47,Hobart,75,AU,1612483667,88,-42.8794,147.3294,73.0,4.61
48,Richards Bay,100,ZA,1612483667,91,-28.783,32.0377,74.71,8.61
49,Rikitea,97,PF,1612483667,68,-23.1203,-134.9692,78.78,11.27
50,Innisfail,74,AU,1612483668,67,-17.5333,146.0333,83.88,4.38
51,Jamestown,1,US,1612483606,44,42.097,-79.2353,33.8,13.8
52,Kamenka,100,RU,1612483668,97,51.3223,42.7678,37.99,14.47
53,Puerto Ayora,39,EC,1612483668,89,-0.7393,-90.3518,79.0,4.0
54,Thompson,90,CA,1612483445,77,55.7435,-97.8558,-7.6,9.22
55,Nikolskoye,75,RU,1612483480,85,59.7035,30.7861,8.01,6.71
56,Airai,100,TL,1612483493,100,-8.9266,125.4092,65.64,4.09
57,Barrow,75,US,1612483537,83,71.2906,-156.7887,-25.6,9.22
58,Beyneu,87,KZ,1612483669,74,45.3167,55.2,42.85,9.6
59,Salalah,40,OM,1612483670,73,17.0151,54.0924,71.6,4.61
60,Hualmay,93,PE,1612483618,77,-11.0964,-77.6139,71.29,6.15
61,Meulaboh,45,ID,1612483548,86,4.1363,96.1285,75.27,4.81
62,Atuona,25,PF,1612483472,71,-9.8,-139.0333,78.55,10.8
63,Kushima,40,JP,1612483670,81,31.4583,131.2333,37.4,8.05
64,La Ronge,100,CA,1612483671,71,55.1001,-105.2842,-0.4,4.61
65,Chara,100,RU,1612483671,78,56.9064,118.2631,-14.01,0.83
66,Radzyń Podlaski,75,PL,1612483671,86,51.7833,22.6167,27.0,4.61
67,Lata,97,PT,1612483671,92,40.1629,-8.3327,52.0,1.54
68,Santa Marta,72,CO,1612483672,67,11.2408,-74.199,84.99,11.01
69,Arraial do Cabo,0,BR,1612483672,81,-22.9661,-42.0278,77.85,27.11
70,Fes,90,MA,1612483672,94,34.0372,-4.9998,53.6,9.22
71,Illapel,0,CL,1612483672,54,-31.6308,-71.1653,69.26,3.94
72,Makarov,1,RU,1612483673,85,48.6333,142.8,-5.91,3.65
73,Sibolga,91,ID,1612483379,84,1.7427,98.7792,74.64,3.4
74,Ouadda,11,CF,1612483673,20,8.0777,22.4007,75.04,7.29
75,Bonavista,95,CA,1612483673,100,48.6499,-53.1147,39.2,6.73
76,Harrai,0,IN,1612483673,34,22.6167,79.2167,58.62,4.34
77,Sitka,40,US,1612483485,93,57.0531,-135.33,37.4,14.97
78,Provideniya,100,RU,1612483674,88,64.3833,-173.3,-6.38,26.87
79,Tual,100,ID,1612483631,80,-5.6667,132.75,82.6,27.94
80,Portland,99,US,1612483412,90,45.5234,-122.6762,46.0,3.0
81,Albany,20,US,1612483673,59,42.6001,-73.9662,33.8,4.74
82,Nurota,100,UZ,1612483675,75,40.5614,65.6886,41.0,11.5
83,Qaanaaq,55,GL,1612483675,61,77.484,-69.3632,-20.94,8.57
84,Tasiilaq,75,GL,1612483594,80,65.6145,-37.6368,26.6,18.41
85,Faanui,15,PF,1612483487,69,-16.4833,-151.75,81.19,7.18
86,Kloulklubed,75,PW,1612483676,74,7.0419,134.2556,84.2,14.97
87,Hong Kong,35,HK,1612483382,79,22.2855,114.1577,64.0,1.01
88,Bethel,1,US,1612483676,74,41.3712,-73.414,30.0,2.66
89,Ngaoundéré,0,CM,1612483677,27,7.3167,13.5833,65.03,4.72
90,Bumba,100,CD,1612483677,89,2.1833,22.4667,73.71,2.06
91,Wenling,79,CN,1612483630,82,28.3669,121.36,57.0,1.66
92,Lebu,0,CL,1612483476,74,-37.6167,-73.65,63.23,2.19
93,Yangi Marg`ilon,4,UZ,1612483678,64,40.4272,71.7189,32.0,6.91
94,Bongandanga,100,CD,1612483678,94,1.5,21.05,73.49,2.82
95,Northam,5,GB,1612483487,96,51.0333,-4.2167,43.0,5.99
96,Cherskiy,2,RU,1612483470,74,68.75,161.3,-11.4,10.6
97,Venado Tuerto,0,AR,1612483678,74,-33.7456,-61.9688,71.01,1.99
98,Khilok,87,RU,1612483679,92,51.3674,110.4676,10.24,8.01
99,Hithadhoo,100,MV,1612483679,76,-0.6,73.0833,82.33,9.86
100,Norman Wells,20,CA,1612483679,67,65.282,-126.8329,-38.2,2.3
101,Qui Nhon,35,VN,1612483680,87,13.7667,109.2333,71.8,9.91
102,Barzas,90,RU,1612483680,85,55.7167,86.3167,8.6,6.71
103,Saldanha,0,ZA,1612483680,82,-33.0117,17.9442,62.6,6.91
104,East London,91,ZA,1612483680,74,-33.0153,27.9116,72.91,6.71
105,Togitsu,40,JP,1612483681,93,32.8333,129.85,39.2,8.05
106,Nzega,82,RW,1612483624,91,-2.479,29.5564,55.76,3.58
107,Altay,90,CN,1612483681,90,47.8667,88.1167,17.69,0.65
108,Erenhot,63,CN,1612483681,92,43.6475,111.9767,19.06,11.32
109,George Town,20,MY,1612483682,83,5.4112,100.3354,75.2,7.76
110,Sur,0,OM,1612483682,70,22.5667,59.5289,65.43,4.99
111,Yellowknife,20,CA,1612483626,68,62.456,-114.3525,-25.6,10.36
112,Iqaluit,90,CA,1612483654,85,63.7506,-68.5145,12.2,12.66
113,Ancud,0,CL,1612483683,38,-41.8697,-73.8203,77.0,11.5
114,Talnakh,100,RU,1612483683,86,69.4865,88.3972,-22.43,1.45
115,Peniche,95,PT,1612483683,88,39.3558,-9.3811,52.0,3.0
116,Bambous Virieux,40,MU,1612483500,73,-20.3428,57.7575,79.0,11.5
117,Butaritari,100,KI,1612483684,86,3.0707,172.7902,79.63,13.51
118,Pathein,0,MM,1612483684,78,16.7833,94.7333,69.22,7.45
119,Lithakia,20,GR,1612483684,93,37.7167,20.8333,48.2,2.17
120,Nome,90,US,1612483546,72,64.5011,-165.4064,6.01,14.97
121,Castro,49,BR,1612483685,95,-24.7911,-50.0119,67.1,4.79
122,Mahébourg,40,MU,1612483592,73,-20.4081,57.7,78.8,11.5
123,Manta,90,EC,1612483504,94,-0.95,-80.7333,77.0,3.44
124,Pucara,40,PE,1612483685,62,-15.9803,-71.4606,57.2,3.44
125,Vao,32,NC,1612483440,87,-22.6667,167.4833,78.73,20.51
126,São João da Barra,3,BR,1612483686,81,-21.6403,-41.0511,78.15,22.64
127,Bunia,39,CD,1612483686,47,1.5667,30.25,66.97,2.91
128,Misratah,100,LY,1612483686,55,32.3754,15.0925,62.56,11.27
129,Ghanzi,100,BW,1612483687,92,-21.5667,21.7833,68.58,7.11
130,Sumbawanga,19,TZ,1612483687,86,-7.9667,31.6167,57.27,1.1
131,Altamont,1,US,1612483688,39,42.2068,-121.7372,42.8,1.72
132,Mahanje,86,TZ,1612483580,95,-9.9333,35.3333,63.81,2.06
133,Bereda,100,ES,1612483688,100,43.2686,-7.5406,46.0,1.59
134,Tiksi,100,RU,1612483688,88,71.6872,128.8694,-21.78,7.36
135,Santa Maria,40,BR,1612483599,78,-29.6842,-53.8069,71.6,3.44
136,Esperance,40,AU,1612483689,67,-33.8667,121.9,59.0,4.61
137,Opuwo,53,NA,1612483689,33,-18.0607,13.84,72.05,3.69
138,Øksfjord,90,NO,1612483689,64,70.2396,22.3479,30.2,16.11
139,Deputatsky,69,RU,1612483689,85,69.3,139.9,-25.55,4.38
140,Betong,92,TH,1612483690,90,5.7743,101.0723,65.73,2.73
141,Saint-Philippe,75,RE,1612483484,69,-21.3585,55.7679,80.6,4.61
142,Constitución,34,CL,1612483690,91,-35.3333,-72.4167,60.75,3.78
143,Flagstaff,1,US,1612483690,33,35.1981,-111.6513,44.6,4.61
144,Vaini,75,TO,1612483594,94,-21.2,-175.2,80.6,6.91
145,Mount Gambier,75,AU,1612483462,82,-37.8333,140.7667,59.0,17.27
146,Tongliao,24,CN,1612483691,93,43.6125,122.2653,12.69,6.91
147,Marawi,78,PH,1612483691,82,7.9986,124.2928,77.0,5.01
148,Isangel,75,VU,1612483405,74,-19.55,169.2667,86.0,3.44
149,Eldoret,19,KE,1612483692,61,0.5204,35.2699,57.18,7.72
150,Auch,98,FR,1612483692,99,43.65,0.5833,54.0,6.64
151,Japura,93,ID,1612483692,88,-0.3167,102.35,72.23,1.92
152,Caravelas,2,BR,1612483692,81,-17.7125,-39.2481,77.59,7.2
153,Lüderitz,0,NA,1612483692,60,-26.6481,15.1594,67.78,19.13
154,Kavieng,95,PG,1612483693,75,-2.5744,150.7967,83.8,6.98
155,Souillac,40,MU,1612483693,73,-20.5167,57.5167,78.8,11.5
156,Hasaki,20,JP,1612483693,45,35.7333,140.8333,41.0,9.22
157,Bariloche,0,AR,1612483693,16,-41.1456,-71.3082,80.6,6.91
158,Olafsvik,100,IS,1612483482,80,64.8945,-23.7142,38.03,36.6
159,Mahbūbnagar,1,IN,1612483694,56,16.7333,77.9833,60.91,4.74
160,Asău,0,RO,1612483694,87,46.4333,26.4,39.2,11.5
161,Enshi,100,CN,1612483397,84,30.3,109.4833,47.16,0.43
162,Yeniseysk,98,RU,1612483694,94,58.4497,92.1703,4.78,5.84
163,Sorong,100,ID,1612483695,70,-0.8833,131.25,83.25,5.41
164,Vostok,33,RU,1612483695,87,46.4856,135.8833,-14.96,6.13
165,Riviere-au-Renard,90,CA,1612483564,86,48.9957,-64.3971,30.2,5.75
166,Tongren,100,CN,1612483696,89,27.7172,109.1853,48.18,2.84
167,Siilinjärvi,20,FI,1612483696,85,63.0833,27.6667,1.4,8.05
168,Ternate,100,ID,1612483696,75,0.8,127.4,81.7,3.51
169,Kargil,98,IN,1612483696,73,34.5667,76.1,-6.41,1.9
170,Guane,2,CU,1612483697,72,22.2025,-84.0875,63.77,4.76
171,Mar del Plata,40,AR,1612483697,72,-38.0023,-57.5575,64.99,11.5
172,Ugoofaaru,100,MV,1612483697,70,5.6667,73.0,81.32,6.17
173,Kruisfontein,0,ZA,1612483697,93,-34.0033,24.7314,64.0,2.71
174,Sambava,64,MG,1612483698,90,-14.2667,50.1667,75.76,6.51
175,Vestmannaeyjar,100,IS,1612483698,72,63.4427,-20.2734,39.85,31.18
176,Ribeira Grande,32,PT,1612483698,71,38.5167,-28.7,55.65,21.0
177,Haines Junction,94,CA,1612483698,54,60.7522,-137.5108,-9.4,1.14
178,Necochea,0,AR,1612483698,76,-38.5473,-58.7368,61.0,6.24
179,Hāgere Hiywet,51,ET,1612483699,31,8.9833,37.85,60.98,4.18
180,Saint-Leu,52,RE,1612483699,59,-21.15,55.2833,78.01,2.68
181,Lompoc,1,US,1612483648,63,34.6391,-120.4579,60.01,13.8
182,Stephenville,1,US,1612483699,44,32.2207,-98.2023,57.0,6.91
183,Banda Aceh,42,ID,1612483529,80,5.5577,95.3222,76.82,13.42
184,Bengkulu,75,ID,1612483593,84,-3.8004,102.2655,75.33,4.43
185,Meridian,90,US,1612483450,52,43.6121,-116.3915,43.0,6.91
186,Miraflores,20,MX,1612483700,8,19.2167,-98.8083,75.2,6.91
187,Upernavik,40,GL,1612483700,69,72.7868,-56.1549,-7.37,4.68
188,Biak,100,ID,1612483701,77,-0.9131,122.8766,79.16,1.77
189,Middlebury (village),1,US,1612483701,93,44.0153,-73.1673,27.0,1.66
190,Soto la Marina,0,MX,1612483701,74,23.7667,-98.2167,73.99,11.99
191,Saskylakh,0,RU,1612483701,75,71.9167,114.0833,-40.56,3.13
192,Tupiza,100,BO,1612483629,65,-21.45,-65.7167,58.55,7.96
193,Antofagasta,20,CL,1612483692,77,-23.65,-70.4,66.2,10.36
194,Marrakesh,75,MA,1612483697,87,31.6315,-8.0083,53.6,9.22
195,Cabo San Lucas,40,MX,1612483702,24,22.8909,-109.9124,80.6,5.75
196,Port Elizabeth,0,ZA,1612483468,88,-33.918,25.5701,66.2,2.3
197,Morant Bay,40,JM,1612483703,69,17.8815,-76.4093,80.6,3.44
198,Bandarbeyla,17,SO,1612483538,70,9.4942,50.8122,71.83,12.21
199,San Cristobal,40,VE,1612483520,58,7.7669,-72.225,84.2,9.22
200,Lavrentiya,100,RU,1612483704,87,65.5833,-171.0,-7.71,20.45
201,Husavik,0,IS,1612483704,63,66.0449,-17.3389,26.6,13.8
202,Avera,40,US,1612483704,37,33.194,-82.5271,51.8,4.61
203,Tucuruí,51,BR,1612483705,72,-3.7661,-49.6725,79.0,1.95
204,Mossamedes,0,AO,1612483705,70,-15.1961,12.1522,71.58,7.0
205,Medicine Hat,90,CA,1612483705,63,50.0501,-110.6683,28.4,4.61
206,Itoman,40,JP,1612483507,67,26.1247,127.6694,62.6,6.91
207,Paita,10,PE,1612483706,77,-5.0892,-81.1144,74.62,14.9
208,Antonina,75,BR,1612483706,94,-25.4286,-48.7119,69.8,4.61
209,Cape Town,0,ZA,1612483690,77,-33.9258,18.4232,68.0,9.22
210,Alta Floresta,40,BR,1612483706,100,-9.8756,-56.0861,75.2,1.14
211,Conde,0,BR,1612483706,83,-7.2597,-34.9075,78.8,4.61
212,Ranot,93,TH,1612483707,77,7.7777,100.3213,78.76,12.68
213,Buala,24,SB,1612483707,76,-8.145,159.5921,83.95,9.26
214,Bānda,57,IN,1612483707,64,25.4833,80.3333,57.18,6.02
215,Chapais,1,CA,1612483707,79,49.7834,-74.8492,21.2,0.65
216,Yerbogachën,90,RU,1612483708,86,61.2767,108.0108,-24.52,1.03
217,Coahuayana Viejo,1,MX,1612483609,69,18.7333,-103.6833,78.8,4.52
218,Kalengwa,20,ZM,1612483708,93,-13.4659,25.0027,62.85,2.35
219,Paoua,24,CF,1612483629,23,7.2427,16.4406,70.48,5.08
220,Maniitsoq,8,GL,1612483709,71,65.4167,-52.9,10.56,6.69
221,Cazones de Herrera,1,MX,1612483709,53,20.7167,-97.3167,78.8,9.22
222,Katsuura,20,JP,1612483709,45,35.1333,140.3,46.0,16.11
223,Vanimo,16,PG,1612483709,66,-2.6741,141.3028,84.99,2.89
224,Sioux Lookout,90,CA,1612483592,79,50.1001,-91.917,12.2,11.5
225,Labuhan,98,ID,1612483537,83,-6.8844,112.2051,80.22,15.5
226,Sipe Sipe,40,BO,1612483710,59,-17.45,-66.3833,64.4,3.44
227,Tura,0,IN,1612483710,58,25.5198,90.2201,59.07,3.53
228,Bushenyi,96,UG,1612483710,87,-0.5853,30.2114,62.01,2.3
229,Turaif,75,SA,1612483711,100,31.6725,38.6637,48.2,6.91
230,Bogorodskoye,100,RU,1612483711,96,56.55,37.8833,10.44,8.95
231,Ogdensburg,1,US,1612483711,74,44.6942,-75.4863,25.0,5.75
232,Kuril'sk,100,RU,1612483711,92,45.2333,147.8833,13.46,24.32
233,Coos Bay,1,US,1612483711,76,43.3665,-124.2179,50.0,16.11
234,Manadhoo,99,MV,1612483712,68,5.7667,73.3833,81.3,4.92
235,Mora,0,CM,1612483712,28,11.0461,14.1401,64.2,5.14
236,Tutóia,72,BR,1612483712,75,-2.7619,-42.2744,80.8,12.8
237,Alice Springs,75,AU,1612483712,64,-23.7,133.8833,73.4,10.36
238,Mayumba,100,GA,1612483713,85,-3.432,10.6554,79.63,4.56
239,Hobyo,15,SO,1612483713,80,5.3505,48.5268,76.05,15.23
240,Ţaga,20,RO,1612483713,75,46.95,24.05,43.0,5.75
241,Zaysan,100,KZ,1612483713,90,47.4667,84.8667,17.69,1.43
242,Pevek,3,RU,1612483714,78,69.7008,170.3133,-13.05,10.96
243,Manacapuru,20,BR,1612483714,94,-3.2997,-60.6206,78.8,2.3
244,São Filipe,91,CV,1612483714,78,14.8961,-24.4956,71.51,12.17
245,Hofn,100,IS,1612483422,80,64.2539,-15.2082,35.92,16.02
246,Rabo de Peixe,20,PT,1612483715,62,37.8,-25.5833,55.4,9.22
247,Fort Nelson,75,CA,1612483715,64,58.8053,-122.7002,-13.0,5.75
248,Cayenne,75,GF,1612483715,83,4.9333,-52.3333,78.8,9.22
249,Paphos,20,CY,1612483716,82,34.7667,32.4167,53.6,9.22
250,Lorengau,99,PG,1612483716,80,-2.0226,147.2712,80.83,6.2
251,Nanortalik,96,GL,1612483716,78,60.1432,-45.2371,21.49,7.43
252,Tuatapere,78,NZ,1612483615,51,-46.1333,167.6833,67.39,4.41
253,Havre-St-Pierre,90,CA,1612483651,93,50.2334,-63.5986,32.0,5.75
254,Sharlyk,100,RU,1612483717,97,52.9167,54.75,34.99,8.86
255,Namatanai,78,PG,1612483505,69,-3.6667,152.4333,84.76,3.27
256,Goderich,96,CA,1612483536,59,43.7501,-81.7165,30.2,14.97
257,Aykhal,62,RU,1612483718,80,66.0,111.5,-36.56,4.32
258,Mahon,95,ES,1612483718,93,39.8885,4.2658,51.8,5.75
259,Kaitangata,32,NZ,1612483718,70,-46.2817,169.8464,59.0,15.01
260,Forsytheganj,94,BY,1612483703,94,52.6333,29.7333,13.8,13.44
261,Saint-Louis,0,SN,1612483719,46,16.3333,-15.0,75.2,4.61
262,Zhigansk,0,RU,1612483719,75,66.7697,123.3711,-43.01,12.21
263,Millinocket,90,US,1612483720,69,45.6573,-68.7098,28.4,5.75
264,Camacha,75,PT,1612483720,82,33.0833,-16.3333,53.6,12.66
265,Korla,14,CN,1612483513,82,41.7597,86.1469,24.26,3.36
266,Luwuk,100,ID,1612483632,71,-0.9516,122.7875,81.37,1.32
267,Esso,100,RU,1612483721,84,55.9333,158.7,0.68,3.42
268,Stokmarknes,89,NO,1612483721,90,68.5646,14.9108,27.0,14.56
269,Ishigaki,40,JP,1612483526,64,24.3448,124.1572,68.0,12.66
270,Longyearbyen,75,SJ,1612483721,67,78.2186,15.6401,17.6,13.8
271,Flinders,47,AU,1612483722,74,-34.5833,150.8552,82.0,4.0
272,Gornopravdinsk,100,RU,1612483722,94,60.05,69.9,9.28,5.39
273,Bereket,100,TM,1612483722,48,39.2446,55.5154,49.66,2.53
274,Sherpur,0,BD,1612483722,61,25.0188,90.0175,60.55,4.23
275,Rapu-Rapu,80,PH,1612483723,82,13.1866,124.1256,79.83,20.2
276,Atambua,100,ID,1612483723,88,-9.1061,124.8925,76.32,5.41
277,Manggar,84,ID,1612483632,83,-2.8833,108.2667,79.34,9.75
278,Khatanga,0,RU,1612483723,78,71.9667,102.5,-30.75,8.88
279,San Ignacio,0,BZ,1612483724,61,17.1561,-89.0714,82.4,6.91
280,Aksarka,63,RU,1612483724,87,66.5606,67.7975,-23.21,4.61
281,Kaniama,46,CD,1612483724,92,-7.5667,24.1833,66.13,1.66
282,‘Āhuimanu,90,US,1612483724,53,21.4447,-157.8378,73.4,11.5
283,Bam,0,IR,1612483724,43,29.106,58.357,46.98,1.57
284,Catalina Foothills,1,US,1612483725,13,32.2979,-110.9187,70.0,14.97
285,Cairns,75,AU,1612483563,70,-16.9167,145.7667,88.0,1.14
286,Honiara,73,SB,1612483725,67,-9.4333,159.95,84.96,7.31
287,Villa Bruzual,95,VE,1612483682,55,9.3328,-69.1208,83.77,2.24
288,Coquimbo,75,CL,1612483479,82,-29.9533,-71.3436,60.8,9.22
289,Vidim,100,RU,1612483726,93,56.4088,103.1106,4.75,6.29
290,Houma,90,US,1612483726,77,29.5958,-90.7195,66.0,9.22
291,Karratha,33,AU,1612483726,76,-20.7377,116.8463,82.54,12.5
292,Trois-Rivières,2,CA,1612483485,74,46.3501,-72.5491,28.4,6.91
293,Dawei,5,MM,1612483727,57,14.0833,98.2,70.32,4.0
294,Novoagansk,81,RU,1612483727,90,61.9449,76.6625,-14.69,4.61
295,Örnsköldsvik,20,SE,1612483727,93,63.2909,18.7153,17.6,8.05
296,Hadejia,0,NG,1612483728,24,12.4498,10.0444,68.04,9.46
297,Chagoda,27,RU,1612483728,94,59.164,35.3285,5.2,6.93
298,Bonfim,79,BR,1612483728,65,3.0833,-59.95,83.1,10.96
299,Saint George,1,US,1612483484,24,37.1041,-113.5841,54.0,5.01
300,San Patricio,40,US,1612483729,68,28.017,-97.5169,82.4,12.66
301,Nabire,100,ID,1612483583,78,-3.3667,135.4833,81.86,1.01
302,Cabedelo,0,BR,1612483729,83,-6.9811,-34.8339,78.8,4.61
303,Rosas,99,CO,1612483729,92,2.2609,-76.7399,61.9,1.83
304,Safi,100,MA,1612483729,79,32.2994,-9.2372,56.14,12.82
305,Ratnagiri,1,IN,1612483730,50,16.9833,73.3,72.27,4.5
306,Mayo,1,US,1612483730,81,38.8876,-76.5119,37.4,4.63
307,Gamba,100,GA,1612483730,88,-2.65,10.0,78.64,1.83
308,Ponca City,1,US,1612483685,39,36.707,-97.0856,42.8,9.22
309,El Sauzal de Rodríguez,35,MX,1612483731,78,31.9,-116.6833,60.01,4.0
310,Talagang,0,PK,1612483731,70,32.9297,72.4158,47.91,0.92
311,Timmins,75,CA,1612483644,59,48.4669,-81.3331,32.0,11.5
312,Santa Fe,1,AR,1612483631,59,-31.6333,-60.7,77.0,1.99
313,Kiryat Gat,100,IL,1612483593,100,31.61,34.7642,55.99,8.79
314,Charters Towers,93,AU,1612483732,65,-20.1,146.2667,82.15,11.32
315,Lagoa,25,PT,1612483732,73,39.05,-27.9833,54.86,21.52
316,Camopi,97,GF,1612483732,97,3.1655,-52.3158,72.48,3.42
317,Port Macquarie,13,AU,1612483511,58,-31.4333,152.9167,82.99,1.99
318,Wattegama,98,LK,1612483733,88,6.7989,81.4808,70.11,6.24
319,Porbandar,0,IN,1612483733,56,21.6422,69.6093,63.32,8.66
320,Waipawa,90,NZ,1612483733,72,-41.4122,175.5153,60.01,21.85
321,Praia,75,CV,1612483734,73,14.9215,-23.5087,69.8,16.11
322,Marang,97,MY,1612483734,87,5.2056,103.2059,73.51,3.71
323,Eirunepé,100,BR,1612483734,86,-6.6603,-69.8736,77.5,0.83
324,Jumla,87,NP,1612483734,84,29.2747,82.1838,32.61,7.72
325,Port Said,0,EG,1612483734,88,31.2565,32.2841,62.6,9.22
326,Samarai,30,PG,1612483735,68,-10.6167,150.6667,84.15,2.44
327,Pundaguitan,66,PH,1612483735,78,6.3711,126.1689,80.89,10.31
328,Vuktyl,97,RU,1612483735,95,63.8567,57.3094,11.3,7.14
329,Banamba,86,ML,1612483735,17,13.55,-7.45,73.85,6.76
330,Jiwani,0,PK,1612483736,51,25.05,61.7417,66.06,6.64
331,Ulundi,100,ZA,1612483736,92,-28.3352,31.4162,68.7,2.89
332,Gimli,100,CA,1612483736,71,50.6336,-96.9907,1.4,12.66
333,Vinces,75,EC,1612483736,83,-1.55,-79.7333,78.8,3.44
334,Caucaia,20,BR,1612483737,83,-3.7361,-38.6531,81.0,9.22
335,Ust'-Barguzin,100,RU,1612483688,92,53.45,108.9833,5.74,0.85
336,Hwange,11,ZW,1612483737,94,-18.3693,26.5019,67.91,1.21
337,Sangar,20,RU,1612483701,78,63.9242,127.4739,-43.13,3.67
338,Recodo,75,PH,1612483737,100,6.9519,121.9636,75.2,5.68
339,Baykit,99,RU,1612483738,88,61.67,96.37,-2.6,2.73
340,Pisco,0,PE,1612483738,73,-13.7,-76.2167,73.4,17.27
341,The Pas,90,CA,1612483444,71,53.8251,-101.2541,-0.4,12.66
342,Claveria,71,PH,1612483738,82,18.6074,121.0832,72.16,16.35
343,St. George's,40,GD,1612483739,74,12.0564,-61.7485,80.6,11.5
344,Nioro,76,GM,1612483739,36,13.35,-15.75,72.23,5.37
345,Arbagar,87,RU,1612483739,88,51.9438,116.2805,-14.66,2.04
346,Waingapu,99,ID,1612483637,79,-9.6567,120.2641,81.09,11.16
347,Schwandorf,40,DE,1612483740,86,49.3262,12.1093,37.99,2.64
348,Buin,0,CL,1612483648,56,-33.7333,-70.75,82.4,12.66
349,Porto-Novo,40,BJ,1612483740,84,6.4965,2.6036,84.2,12.66
350,Svetlaya,70,RU,1612483740,84,46.5389,138.3297,0.39,8.55
351,Alpena,1,US,1612483741,69,45.0617,-83.4327,33.01,10.36
352,Khao Wong,13,TH,1612483741,88,16.7001,104.0902,61.95,6.58
353,Cuajinicuilapa,1,MX,1612483741,66,16.4667,-98.4167,81.19,7.36
354,Puerto Escondido,75,MX,1612483637,78,15.85,-97.0667,82.4,4.07
355,Puyang,86,CN,1612483742,82,29.4603,119.8861,48.67,1.21
356,Tūkrah,0,LY,1612483742,80,32.5341,20.5791,56.59,5.14
357,Basco,68,PH,1612483742,73,20.4487,121.9702,70.79,22.24
358,Xilitla,0,MX,1612483743,66,21.3333,-98.9667,74.28,1.12
359,Whyalla,0,AU,1612483743,55,-33.0333,137.5833,64.4,20.71
360,Malindi,53,KE,1612483743,86,-3.2175,40.1191,76.95,8.01
361,Salamiyah,100,SY,1612483700,74,35.0113,37.0532,53.65,14.27
362,Pacifica,1,US,1612483587,71,37.6138,-122.4869,59.0,13.8
363,Superior,90,US,1612483744,58,46.7208,-92.1041,19.4,10.36
364,Fortuna,1,US,1612483461,71,40.5982,-124.1573,55.0,11.5
365,Vila Velha,0,BR,1612483744,83,-20.3297,-40.2925,79.0,9.22
366,Toora-Khem,100,RU,1612483744,90,52.4675,96.11,7.54,1.7
367,Cap Malheureux,13,MU,1612483534,76,-19.9842,57.6142,79.0,5.01
368,Qingyang,100,CN,1612483745,72,37.4958,121.2581,38.01,13.51
369,Pangnirtung,90,CA,1612483745,78,66.1451,-65.7125,8.6,9.22
370,Cockburn Town,40,TC,1612483558,60,21.4612,-71.1419,73.4,6.91
371,Panguipulli,0,CL,1612483746,42,-39.6333,-72.3333,86.0,6.91
372,San Jose,40,US,1612483512,29,37.3394,-121.895,62.6,11.5
373,Leshukonskoye,100,RU,1612483746,94,64.8989,45.7622,3.85,10.65
374,Uíge,73,AO,1612483747,94,-7.6087,15.0613,67.41,2.42
375,Dingle,66,PH,1612483469,86,10.9995,122.6711,78.06,11.3
376,Tuy Hoa,72,VN,1612483747,90,13.0833,109.3,71.38,6.71
377,Touros,0,BR,1612483747,69,-5.1989,-35.4608,80.6,11.5
378,Kununurra,98,AU,1612483488,89,-15.7667,128.7333,86.0,5.75
379,Umluj,14,SA,1612483748,53,25.0213,37.2685,69.3,6.58
380,Kiama,47,AU,1612483748,74,-34.6833,150.8667,82.0,4.0
381,Pincher Creek,75,CA,1612483748,47,49.4833,-113.952,35.6,14.97
382,Panzhihua,0,CN,1612483749,62,26.5851,101.7128,39.0,1.59
383,Narsaq,88,GL,1612483749,48,60.9167,-46.05,15.8,4.61
384,Koslan,100,RU,1612483749,96,63.4564,48.8989,11.3,6.26
385,Klaksvík,99,FO,1612483481,69,62.2266,-6.589,33.8,18.41
386,Penzance,40,GB,1612483749,93,50.1186,-5.5371,46.4,11.5
387,Aswān,0,EG,1612483750,51,24.0934,32.907,58.51,11.81
388,Wanning,43,CN,1612483750,85,18.8003,110.3967,66.9,5.19
389,Heidenau,90,DE,1612483750,100,50.9722,13.8674,37.4,5.75
390,Tutin,58,RS,1612483750,78,42.9903,20.3314,38.14,2.66
391,Nelson Bay,20,AU,1612483750,51,-32.7167,152.15,82.4,13.8
392,Iida,0,JP,1612483751,71,35.5197,137.8207,34.0,1.01
393,Gerāsh,0,IR,1612483751,50,27.6652,54.1371,47.91,1.7
394,Province of Mantua,100,IT,1612483751,95,45.1667,10.7833,46.0,4.0
395,Beidao,46,CN,1612483751,72,34.5686,105.8933,31.82,0.98
396,Yanam,0,IN,1612483529,83,16.7333,82.2167,62.11,2.89
397,Yanggu,100,CN,1612483752,67,36.1106,115.7753,41.31,6.87
398,Krasnosel'kup,86,RU,1612483752,87,65.7,82.4667,-21.14,6.69
399,Omboué,100,GA,1612483752,88,-1.5746,9.2618,78.15,4.32
400,Port Lincoln,57,AU,1612483753,70,-34.7333,135.8667,62.83,22.84
401,Fergus Falls,100,US,1612483753,85,46.283,-96.0776,7.0,21.85
402,Anchorage,75,US,1612483476,73,61.2181,-149.9003,17.6,5.75
403,Tokonou,67,GN,1612483753,24,9.65,-9.7833,73.31,1.83
404,Usogorsk,100,RU,1612483753,95,63.4106,48.6872,11.57,6.06
405,Farap,0,TM,1612483754,71,39.1704,63.6116,48.2,16.11
406,Ucluelet,90,CA,1612483754,100,48.9329,-125.5528,46.99,15.32
407,Boffa,41,GN,1612483754,82,10.1667,-14.0333,71.64,3.71
408,Tarabha,56,IN,1612483754,40,20.7333,83.65,52.9,1.39
409,Port Pirie,0,AU,1612483755,55,-33.1833,138.0167,64.4,20.71
410,Idah,0,NG,1612483755,30,7.1065,6.7342,75.31,3.58
411,Poum,9,NC,1612483492,81,-20.2333,164.0167,80.38,14.45
412,Winneba,75,GH,1612483755,84,5.3511,-0.6231,84.2,10.36
413,Varniai,0,LT,1612483755,85,55.7406,22.3644,14.0,10.36
414,Richmond Hill,53,CA,1612483756,79,43.8711,-79.4372,30.99,7.43
415,Yulara,90,AU,1612483487,60,-25.2406,130.9889,68.0,11.5
416,Sola,75,VU,1612483756,70,-13.8833,167.55,87.8,5.75
417,Rentina,17,GR,1612483756,74,40.6574,23.614,53.01,1.54
418,Nantucket,90,US,1612483573,86,41.2835,-70.0995,33.01,5.75
419,Bambanglipuro,93,ID,1612483757,82,-7.95,110.2833,79.0,3.65
420,Aasiaat,41,GL,1612483757,81,68.7098,-52.8699,-6.3,16.2
421,Mbandaka,97,CD,1612483705,83,0.0487,18.2603,73.09,3.44
422,Najrān,0,SA,1612483758,31,17.4924,44.1277,60.8,0.38
423,Malbork,98,PL,1612483758,89,54.0359,19.0266,24.01,4.12
424,Pangani,39,TZ,1612483758,84,-5.4333,38.9667,76.23,7.34
425,Grindavik,75,IS,1612483758,87,63.8424,-22.4338,37.4,26.46
426,Durango,31,MX,1612483619,18,24.8333,-104.8333,72.95,14.25
427,Wakimachi,75,JP,1612483750,70,34.0667,134.15,39.0,9.22
428,Rocha,100,UY,1612483759,76,-34.4833,-54.3333,66.33,17.2
429,Burnie,99,AU,1612483759,96,-41.0667,145.9167,69.01,7.0
430,Kharan,0,PK,1612483759,48,28.5833,65.4167,45.34,2.21
431,Tazovsky,44,RU,1612483759,87,67.4667,78.7,-24.29,7.74
432,Harindānga,0,IN,1612483760,82,22.0383,88.3214,59.0,3.44
433,Natal,0,BR,1612483760,69,-5.795,-35.2094,80.6,10.36
434,High Level,20,CA,1612483761,70,58.5169,-117.136,-14.8,6.91
435,Staryy Nadym,27,RU,1612483761,86,65.6118,72.6842,-25.92,5.35
436,Coro,62,VE,1612483582,82,11.4045,-69.6734,77.94,17.78
437,Zorritos,57,PE,1612483761,71,-3.6805,-80.6782,78.73,9.91
438,Puerto Madryn,0,AR,1612483762,23,-42.7692,-65.0385,83.66,28.1
439,Tornio,0,FI,1612483762,85,65.8481,24.1466,5.0,3.44
440,San Miguel de Tucumán,40,AR,1612483762,61,-26.8241,-65.2226,80.6,0.87
441,Grand Gaube,10,MU,1612483762,76,-20.0064,57.6608,79.0,5.01
442,Urdoma,98,RU,1612483762,97,61.7533,48.5442,15.91,6.26
443,Sarkand,100,KZ,1612483763,77,45.41,79.9186,31.1,3.47
444,Andenes,100,NO,1612483476,80,69.3143,16.1194,33.8,24.16
445,Taoudenni,39,ML,1612483763,19,22.6783,-3.9836,70.79,6.78
446,Nur,75,PL,1612483763,74,52.6683,22.3221,17.01,4.03
447,Mut,0,TR,1612483764,54,36.6439,33.4389,52.03,4.59
448,Kaeo,61,NZ,1612483542,61,-35.1,173.7833,71.38,6.17
449,Raudeberg,1,NO,1612483764,64,61.9875,5.1352,21.0,7.76
450,Bantry,75,IE,1612483765,87,51.6833,-9.45,42.8,10.36
451,Yumen,10,CN,1612483765,61,40.2833,97.2,28.71,15.19
452,Ferme-Neuve,0,CA,1612483765,74,46.7001,-75.4493,24.8,1.61
453,Zhob,0,PK,1612483765,57,31.3411,69.4481,42.55,5.5
454,Lumberton,1,US,1612483766,45,34.6182,-79.0086,44.6,5.75
455,Babaeski,2,TR,1612483766,87,41.4325,27.0931,49.82,3.67
456,Kalemie,53,CD,1612483766,79,-5.9475,29.1947,70.23,4.65
457,Tupelo,90,US,1612483496,94,34.2576,-88.7034,53.6,8.05
458,Ascoli Piceno,99,IT,1612483767,92,42.8548,13.5749,46.0,2.42
459,Salinópolis,76,BR,1612483767,84,-0.6136,-47.3561,79.84,10.94
460,Santiago,0,CL,1612483474,42,-33.4569,-70.6483,82.4,5.75
461,Bilma,0,NE,1612483768,32,18.6853,12.9164,60.49,5.82
462,Venustiano Carranza,20,MX,1612483768,8,19.43,-99.0992,75.2,6.91
463,Zabid,0,YE,1612483768,59,14.1951,43.3152,71.49,7.31
464,Mahajanga,40,MG,1612483768,94,-15.7167,46.3167,75.2,8.05
465,Fairbanks,20,US,1612483473,76,64.8378,-147.7164,-14.01,3.44
466,Klyuchi,100,RU,1612483769,98,52.2667,79.1667,20.98,4.94
467,Visnes,24,NO,1612483769,63,59.3556,5.2242,23.0,11.5
468,Segovia,65,ES,1612483769,94,41.1667,-4.0,46.99,7.63
469,Makakilo City,40,US,1612483769,50,21.3469,-158.0858,75.2,11.5
470,Kalmunai,100,LK,1612483770,84,7.4167,81.8167,76.08,9.73
471,Riyadh,0,SA,1612483770,25,24.6877,46.7219,64.4,3.44
472,Atar,84,MR,1612483625,28,20.5169,-13.0499,65.44,6.35
473,Auki,66,SB,1612483770,70,-8.7676,160.7034,84.47,8.5
474,Portobelo,58,PA,1612483771,99,9.55,-79.65,81.0,13.35
475,Huarmey,95,PE,1612483771,72,-10.0681,-78.1522,71.96,6.02
476,Thinadhoo,93,MV,1612483771,76,0.5333,72.9333,81.88,9.93
477,Whitley Bay,90,GB,1612483771,93,55.0397,-1.4471,43.0,9.22
478,Codrington,100,AU,1612483500,80,-38.2667,141.9667,55.58,11.77
479,Terney,6,RU,1612483772,84,45.0503,136.6092,-2.33,7.99
480,Grand-Lahou,0,CI,1612483772,90,5.1367,-5.0242,79.02,9.91
481,Tiarei,40,PF,1612483772,74,-17.5333,-149.3333,80.6,6.91
482,Marsh Harbour,32,BS,1612483596,54,26.5412,-77.0636,65.34,5.17
483,Havelock,1,US,1612483729,60,34.8791,-76.9013,46.0,6.91
484,Cheyenne,40,US,1612483768,46,41.14,-104.8203,30.2,18.41
485,Mitú,96,CO,1612483773,97,1.1983,-70.1733,73.09,1.5
486,San Jerónimo,85,PE,1612483773,70,-11.9472,-75.2829,53.47,4.36
487,Kahului,90,US,1612483607,60,20.8947,-156.47,71.6,13.8
488,Laguna,1,US,1612483623,34,38.421,-121.4238,62.6,8.05
489,Troitskoye,100,RU,1612483774,93,52.9821,84.6757,8.58,2.17
490,Qaqortoq,100,GL,1612483774,48,60.7167,-46.0333,15.8,4.61
491,Mairana,100,BO,1612483775,87,-18.1167,-63.9333,59.27,3.94
492,Mtsensk,100,RU,1612483775,97,53.2766,36.5733,23.16,18.41
493,Guadalupe,40,MX,1612483565,22,25.6833,-100.25,91.4,13.8
494,Seydi,86,TM,1612483775,69,39.4816,62.9137,47.75,11.9
495,Okhotsk,99,RU,1612483775,86,59.3833,143.3,1.42,12.37
496,Saint-Joseph,75,RE,1612483776,69,-21.3667,55.6167,80.6,4.61
497,Matara,77,LK,1612483694,88,5.9485,80.5353,72.64,5.84
498,Kaseda-shirakame,20,JP,1612483776,93,31.4167,130.3167,32.0,3.44
499,Morón,0,AR,1612483776,47,-34.6534,-58.6198,80.01,3.96
500,Sucúa,90,EC,1612483777,88,-2.4667,-78.1667,69.8,2.3
501,Faya,0,SA,1612483620,67,18.3851,42.4509,59.0,9.22
502,Anadyr,90,RU,1612483777,78,64.75,177.4833,3.2,38.03
503,Mocuba,73,MZ,1612483777,97,-16.8392,36.9856,73.76,1.77
504,Umm Kaddadah,37,SD,1612483778,28,13.6017,26.6876,64.09,17.18
505,Padang,20,ID,1612483778,88,-0.9492,100.3543,75.2,3.44
506,Azul,0,AR,1612483778,38,-36.777,-59.8585,69.48,10.27
507,Golden,40,US,1612483631,27,39.7555,-105.2211,37.99,25.32
508,Abnūb,0,EG,1612483779,76,27.2696,31.1511,50.0,11.5
509,Denpasar,20,ID,1612483690,89,-8.65,115.2167,80.6,5.75
510,Lynchburg,1,US,1612483725,33,37.4138,-79.1423,44.6,6.91
511,Rexburg,40,US,1612483509,80,43.826,-111.7897,26.6,11.5
512,Labuan,20,MY,1612483780,89,5.2767,115.2417,78.8,2.3
513,Amazar,17,RU,1612483780,81,53.858,120.875,-22.77,3.51
514,Barra de Tecoanapa,0,MX,1612483780,71,16.5167,-98.75,81.05,8.25
515,Westport,1,US,1612483653,64,41.1415,-73.3579,35.01,4.38
516,Srednekolymsk,91,RU,1612483780,82,67.45,153.6833,-7.17,16.91
517,San Quintín,62,MX,1612483781,66,30.4833,-115.95,60.57,18.99
518,Eyrarbakki,40,IS,1612483781,60,63.863,-21.1481,35.6,18.41
519,Port Hardy,90,CA,1612483781,100,50.6996,-127.4199,42.8,4.61
520,Tomatlán,0,MX,1612483782,45,19.9333,-105.25,81.16,5.73
521,Kushmurun,100,KZ,1612483782,98,52.4503,64.6311,33.6,11.07
522,Dhone,43,IN,1612483782,67,15.4167,77.8833,63.27,7.4
523,Krasnyy Yar,90,RU,1612483782,93,46.5331,48.3456,39.2,8.95
524,Iraq,90,IQ,1612483783,63,33.0,44.0,59.0,9.22
525,Kimbe,100,PG,1612483783,91,-5.5502,150.1429,76.14,2.84
526,Kerman,0,IR,1612483783,29,30.2832,57.0788,33.8,6.91
527,Visby,75,SE,1612483784,74,57.6409,18.296,23.0,13.8
528,Gigmoto,83,PH,1612483784,84,13.7796,124.39,78.42,16.13
529,Qinhuangdao,0,CN,1612483784,78,39.9317,119.5883,30.9,9.82
530,Ōfunato,75,JP,1612483784,80,39.0717,141.7167,24.8,6.91
531,Rudnya,100,RU,1612483785,95,54.947,31.0934,7.18,9.64
532,Bucureşci,45,RO,1612483785,90,46.1333,22.9,37.22,0.92
533,Conceição da Barra,2,BR,1612483785,77,-18.5933,-39.7322,78.24,9.78
534,Maragogi,3,BR,1612483785,81,-9.0122,-35.2225,78.58,10.25
535,Celestún,0,MX,1612483786,63,20.8667,-90.4,72.01,9.31
536,Matamoros,20,MX,1612483786,7,25.5333,-103.25,87.8,6.71
537,Conakry,0,GN,1612483786,69,9.538,-13.6773,80.6,2.3
538,Egvekinot,100,RU,1612483786,88,66.3167,-179.1667,-19.98,18.37
539,Barra,70,BR,1612483787,66,-11.0894,-43.1417,79.81,6.2
540,Vodnyy,100,RU,1612483787,96,63.5046,53.4095,14.2,5.84
541,Evensk,100,RU,1612483787,88,61.95,159.2333,1.56,20.51
542,Nānākuli,40,US,1612483787,50,21.3906,-158.1547,75.2,11.5
543,Badarwās,78,IN,1612483788,47,24.9667,77.5667,60.78,4.85
544,Khovu-Aksy,100,RU,1612483788,90,51.1333,93.6,13.32,2.68
545,Tokur,89,RU,1612483788,84,53.1333,132.9,-35.07,3.0
546,Ostrovnoy,100,RU,1612483531,93,68.0531,39.5131,11.12,21.39
547,Esmeralda,1,CU,1612483788,68,21.8525,-78.1169,68.0,11.5
548,Maitum,84,PH,1612483789,68,6.0392,124.4986,81.19,1.52
549,Khanbari,0,NP,1612483789,46,27.3747,87.2039,50.45,3.0
550,Mashhad,0,IR,1612483789,51,36.297,59.6062,33.8,4.61
551,Tiznit Province,100,MA,1612483790,79,29.5833,-9.5,50.7,6.51
552,Kozan,0,TR,1612483790,71,37.4552,35.8157,55.0,3.44
553,Baie-Saint-Paul,89,CA,1612483507,93,47.4411,-70.4986,26.6,2.3
554,Belyy Yar,100,RU,1612483790,85,53.6039,91.3903,8.6,2.24
555,Heilbron,77,ZA,1612483790,91,-27.2812,27.9709,58.86,2.86
556,Bastrop,90,US,1612483791,72,32.7562,-91.8724,66.2,3.44
557,Hauge i Dalane,41,NO,1612483791,66,58.3436,6.2812,19.99,16.87
558,Bantou,0,CN,1612483791,77,26.2151,117.4893,57.06,1.41
559,Arrondissement du Havre,0,FR,1612483791,93,49.5833,0.3333,46.4,8.05
560,Estelle,75,US,1612483702,72,29.8458,-90.1067,66.99,14.97
561,Mitsamiouli,38,KM,1612483792,68,-11.3847,43.2844,83.01,5.53
562,Am Timan,8,TD,1612483792,21,11.0297,20.2827,73.8,8.86
