City ID,City,Cloudiness,Country,Date,Humidity,Lat,Lng,Max Temp,Wind Speed
0,Henties Bay,40,NA,1612652293,89,-22.116,14.2845,64.99,1.99
1,Hofn,98,IS,1612652145,92,64.2539,-15.2082,32.9,18.37
2,Cape Town,20,ZA,1612652293,83,-33.9258,18.4232,72.0,9.22
3,Dikson,89,RU,1612652294,86,73.5069,80.5464,-28.75,9.57
4,Tuatapere,1,NZ,1612652294,50,-46.1333,167.6833,70.03,1.92
5,Contamana,55,PE,1612652294,88,-7.3333,-75.0167,80.04,2.13
6,Port-Gentil,40,GA,1612652294,89,-0.7193,8.7815,80.6,5.75
7,Rikitea,100,PF,1612652294,69,-23.1203,-134.9692,78.44,9.95
8,Sitka,40,US,1612652100,69,57.0531,-135.33,35.6,14.97
9,Kiryat Gat,2,IL,1612652295,100,31.61,34.7642,57.0,2.62
10,Kysyl-Syr,52,RU,1612652203,82,63.8986,122.7617,-35.66,6.8
11,Tasiilaq,75,GL,1612652295,55,65.6145,-37.6368,35.6,29.93
12,Butaritari,100,KI,1612652295,80,3.0707,172.7902,81.3,20.31
13,Torbay,90,CA,1612652296,100,47.6666,-52.7314,41.0,19.57
14,Cochrane,90,CA,1612652296,71,51.1834,-114.4687,-5.8,6.91
15,Hermanus,55,ZA,1612652296,90,-34.4187,19.2345,68.0,3.56
16,Castro,0,BR,1612652296,76,-24.7911,-50.0119,62.92,8.99
17,Tiksi,100,RU,1612652297,84,71.6872,128.8694,-24.63,4.68
18,Cabo San Lucas,1,MX,1612652205,60,22.8909,-109.9124,78.8,11.5
19,Mar del Plata,20,AR,1612652115,68,-38.0023,-57.5575,66.2,12.66
20,Clyde River,1,CA,1612652297,84,70.4692,-68.5914,-13.0,2.3
21,Cidreira,58,BR,1612652297,73,-30.1811,-50.2056,70.95,4.74
22,Puerto Ayora,0,EC,1612652298,62,-0.7393,-90.3518,86.0,16.11
23,Samaná,20,DO,1612652298,78,19.2056,-69.3369,80.6,10.11
24,Kapaa,20,US,1612652298,49,22.0752,-159.319,73.4,6.91
25,Altay,75,CN,1612652298,88,47.8667,88.1167,21.52,4.18
26,Lüderitz,0,NA,1612652104,57,-26.6481,15.1594,70.3,21.43
27,Albany,20,US,1612652299,40,42.6001,-73.9662,30.2,13.8
28,Punta Arenas,75,CL,1612652127,51,-53.15,-70.9167,57.2,24.16
29,Hamilton,1,US,1612652299,30,39.1834,-84.5333,39.2,3.0
30,Naze,75,JP,1612652116,77,28.3667,129.4833,62.6,3.44
31,Vaini,75,TO,1612652300,89,-21.2,-175.2,82.4,6.91
32,Hobart,75,AU,1612652101,59,-42.8794,147.3294,64.0,12.66
33,Busselton,100,AU,1612652300,97,-33.65,115.3333,57.99,1.99
34,George Town,20,MY,1612652274,83,5.4112,100.3354,78.8,7.05
35,Lebu,65,CL,1612652301,86,-37.6167,-73.65,60.76,3.11
36,Bambous Virieux,40,MU,1612652108,78,-20.3428,57.7575,78.8,4.61
37,Thompson,75,CA,1612652108,62,55.7435,-97.8558,-25.6,14.97
38,Vestmannaeyjar,34,IS,1612652111,72,63.4427,-20.2734,39.31,29.73
39,Manacor,75,ES,1612652302,82,39.5696,3.2096,59.0,6.91
40,Esperance,90,AU,1612652122,94,-33.8667,121.9,59.0,11.5
41,Río Gallegos,20,AR,1612652166,27,-51.6226,-69.2181,64.4,16.11
42,Port Hardy,75,CA,1612652302,75,50.6996,-127.4199,44.6,12.66
43,Bluff,2,NZ,1612652303,67,-46.6,168.3333,61.32,3.49
44,Te Anau,5,NZ,1612652303,48,-45.4167,167.7167,69.8,2.46
45,Port Alfred,46,ZA,1612652107,90,-33.5906,26.891,68.0,5.99
46,Lusambo,86,CD,1612652303,90,-4.9667,23.45,72.25,1.61
47,Tutayev,0,RU,1612652304,78,57.8853,39.5406,-2.2,8.95
48,Aojiang,0,CN,1612652304,76,22.9421,116.0359,64.99,1.01
49,Casteldaccia,0,IT,1612652304,17,38.0526,13.5287,73.4,21.85
50,Ushuaia,40,AR,1612652100,71,-54.8,-68.3,53.6,19.57
51,Santa Cruz de la Sierra,20,BO,1612652304,48,-17.8,-63.1667,86.0,2.3
52,Tessalit,89,ML,1612652106,18,20.1986,1.0114,72.5,13.76
53,Ljungby,0,SE,1612652305,92,56.8332,13.9408,10.99,5.75
54,Guerrero Negro,3,MX,1612652105,35,27.9769,-114.0611,72.01,10.8
55,Raahe,28,FI,1612652305,85,64.6833,24.4833,10.4,10.36
56,Takoradze,0,GH,1612652306,88,4.8845,-1.7554,79.7,8.81
57,San Vicente,0,AR,1612652306,71,-26.6167,-54.1333,65.86,4.61
58,Ulu-Telyak,100,RU,1612652306,91,54.9086,56.9669,-0.47,12.53
59,Saskylakh,88,RU,1612652306,79,71.9167,114.0833,-37.77,6.93
60,Boa Vista,20,BR,1612652110,58,2.8197,-60.6733,86.0,5.75
61,Bam,0,IR,1612652307,32,29.106,58.357,54.1,7.47
62,Jamestown,1,US,1612652307,45,42.097,-79.2353,21.2,10.36
63,Klaksvík,20,FO,1612652307,69,62.2266,-6.589,33.8,18.41
64,Kočevje,87,SI,1612652307,100,45.6433,14.8633,48.0,3.87
65,Provideniya,40,RU,1612652110,89,64.3833,-173.3,1.31,4.94
66,Carnarvon,40,AU,1612652308,100,-24.8667,113.6333,78.8,12.66
67,Mataura,0,NZ,1612652308,53,-46.1927,168.8643,73.74,2.39
68,Port Elizabeth,40,ZA,1612652308,83,-33.918,25.5701,68.0,9.22
69,Narsaq,24,GL,1612652308,77,60.9167,-46.05,19.51,2.57
70,Opuwo,96,NA,1612652309,40,-18.0607,13.84,75.52,4.72
71,Beringovskiy,59,RU,1612652309,89,63.05,179.3167,-6.97,10.36
72,Avarua,67,CK,1612652191,74,-21.2078,-159.775,84.2,11.5
73,Bethel,1,US,1612652189,28,41.3712,-73.414,42.8,11.5
74,Qaanaaq,99,GL,1612652310,86,77.484,-69.3632,9.77,6.98
75,Longyearbyen,75,SJ,1612652124,79,78.2186,15.6401,19.4,11.5
76,Bredasdorp,74,ZA,1612652310,73,-34.5322,20.0403,69.8,6.91
77,Tuktoyaktuk,90,CA,1612652310,83,69.4541,-133.0374,-16.6,24.16
78,Novy Urengoy,71,RU,1612652140,87,66.0833,76.6333,-20.47,12.3
79,Gigmoto,52,PH,1612652311,84,13.7796,124.39,78.87,11.1
80,Saldanha,15,ZA,1612652311,82,-33.0117,17.9442,66.2,8.05
81,Anadyr,0,RU,1612652311,77,64.75,177.4833,-5.01,5.7
82,Barrow,75,US,1612652312,77,71.2906,-156.7887,-5.8,10.36
83,Hobyo,1,SO,1612652312,80,5.3505,48.5268,76.68,15.23
84,Kaitangata,2,NZ,1612652312,74,-46.2817,169.8464,64.99,4.0
85,San Quintín,0,MX,1612652132,59,30.4833,-115.95,64.8,12.37
86,Bengkulu,100,ID,1612652313,73,-3.8004,102.2655,76.35,4.94
87,Genhe,0,CN,1612652313,84,50.7833,121.5167,-21.95,1.52
88,Amudat,39,UG,1612652313,54,1.95,34.95,69.01,4.14
89,Leningradskiy,0,RU,1612652313,74,69.3833,178.4167,-10.84,6.38
90,Rundu,99,NA,1612652314,88,-17.9333,19.7667,69.91,2.86
91,Tezu,60,IN,1612652314,34,27.9167,96.1667,58.46,3.8
92,Traverse City,90,US,1612652314,67,44.7631,-85.6206,15.8,10.36
93,Sechura,35,PE,1612652315,59,-5.5569,-80.8222,80.24,17.47
94,Port Keats,96,AU,1612652113,77,-14.25,129.55,83.23,10.69
95,Grand Gaube,10,MU,1612652108,85,-20.0064,57.6608,77.0,1.99
96,Faanui,2,PF,1612652315,67,-16.4833,-151.75,82.24,10.04
97,Hilo,1,US,1612652167,44,19.7297,-155.09,80.6,6.91
98,Broome,1,US,1612652316,31,42.2506,-75.833,28.4,11.5
99,Saint Paul Harbor,20,US,1612652313,60,57.79,-152.4072,37.4,3.44
100,São João da Barra,100,BR,1612652062,95,-21.6403,-41.0511,72.23,13.15
101,Ribeira Grande,97,PT,1612652316,85,38.5167,-28.7,61.07,21.97
102,Talnakh,0,RU,1612652316,73,69.4865,88.3972,-29.15,2.46
103,Karla,0,EE,1612652317,92,59.3723,24.9275,8.6,5.75
104,Kahului,20,US,1612652317,53,20.8947,-156.47,75.2,11.5
105,Acaraú,25,BR,1612652317,81,-2.8856,-40.12,79.36,13.06
106,Kota Kinabalu,20,MY,1612652317,88,5.9749,116.0724,75.2,6.91
107,Souillac,40,MU,1612652318,78,-20.5167,57.5167,78.8,4.61
108,Preobrazheniye,14,RU,1612652318,86,42.9019,133.9064,13.78,9.22
109,Korla,0,CN,1612652318,86,41.7597,86.1469,25.59,2.62
110,Biltine,6,TD,1612652318,26,14.5333,20.9167,63.48,14.56
111,Kampot,40,KH,1612652319,94,10.6167,104.1833,75.2,5.75
112,Isangel,20,VU,1612652319,74,-19.55,169.2667,84.2,5.75
113,Arraial do Cabo,100,BR,1612652319,83,-22.9661,-42.0278,75.63,5.86
114,Mossamedes,21,AO,1612652319,78,-15.1961,12.1522,71.15,7.83
115,Vaitape,2,PF,1612652319,67,-16.5167,-151.75,82.24,10.11
116,Nanortalik,25,GL,1612652320,83,60.1432,-45.2371,23.43,6.87
117,Grindavik,0,IS,1612652109,69,63.8424,-22.4338,33.8,18.41
118,Luganville,2,VU,1612652320,63,-15.5333,167.1667,85.24,4.85
119,Acapulco de Juárez,1,MX,1612652320,62,16.8634,-99.8901,86.0,11.5
120,Hasaki,0,JP,1612652321,70,35.7333,140.8333,39.2,3.44
121,Moussoro,58,TD,1612652321,24,13.6408,16.4901,65.97,11.61
122,Poso,100,ID,1612652275,75,-1.3959,120.7524,81.0,3.33
123,Laas,75,IT,1612652321,100,46.6166,10.7002,39.99,12.66
124,East London,6,ZA,1612652127,88,-33.0153,27.9116,74.59,7.27
125,Tahoua,61,NE,1612652322,19,14.8888,5.2692,71.28,11.72
126,Salalah,75,OM,1612652322,73,17.0151,54.0924,73.4,8.05
127,Ambon City,20,ID,1612652322,88,-3.6954,128.1814,77.0,6.91
128,Jinchang,0,CN,1612652322,70,38.4953,102.1739,26.65,1.92
129,Mayumba,100,GA,1612652168,81,-3.432,10.6554,79.75,1.9
130,Nicoya,40,CR,1612652323,48,10.1483,-85.452,89.6,9.22
131,Caravelas,100,BR,1612652199,88,-17.7125,-39.2481,77.5,9.15
132,Coahuayana Viejo,1,MX,1612652152,57,18.7333,-103.6833,80.6,5.28
133,Severnyy,40,RU,1612652323,78,50.677,36.5532,6.8,13.42
134,Xinyang,2,CN,1612652324,63,32.1228,114.0656,47.86,2.57
135,Coyhaique,20,CL,1612652324,22,-45.5752,-72.0662,78.8,8.05
136,Mehamn,100,NO,1612652324,93,71.0357,27.8492,25.95,20.45
137,Ancud,0,CL,1612652324,46,-41.8697,-73.8203,73.4,8.05
138,Östersund,58,SE,1612652324,92,63.1792,14.6357,10.4,4.61
139,Atuona,89,PF,1612652325,77,-9.8,-139.0333,80.28,21.81
140,Pangai,100,TO,1612652325,89,-19.8,-174.35,79.09,18.72
141,Perth,75,AU,1612652325,88,-31.9333,115.8333,64.0,25.32
142,Kortkeros,75,RU,1612652325,71,61.8106,51.5806,-2.2,13.42
143,Nambucca Heads,75,AU,1612652326,78,-30.65,153.0,82.0,9.22
144,Tecpan,0,GT,1612652326,50,14.7623,-90.9947,75.2,16.11
145,Upata,100,VE,1612652178,77,8.0086,-62.3989,80.01,4.0
146,Port Blair,9,IN,1612652326,78,11.6667,92.75,77.74,8.57
147,Siavonga,100,ZM,1612652327,84,-16.5382,28.7088,74.46,4.85
148,Saint-Philippe,40,RE,1612652327,83,-21.3585,55.7679,78.8,4.61
149,Ponta do Sol,13,PT,1612652327,66,32.6667,-17.1,55.0,1.99
150,Belmonte,40,BR,1612652186,78,-15.8631,-38.8828,78.8,11.5
151,San Policarpo,93,PH,1612652328,84,12.1791,125.5072,80.51,15.66
152,Norman Wells,75,CA,1612652328,75,65.282,-126.8329,-29.2,4.61
153,Aden,0,YE,1612652328,67,12.7794,45.0367,73.94,4.12
154,Umluj,0,SA,1612652328,44,25.0213,37.2685,69.94,13.89
155,Guiyang,75,CN,1612652329,100,26.5833,106.7167,50.0,6.71
156,Kirove,91,UA,1612652329,86,47.6531,35.6951,25.56,7.78
157,Saint George,1,US,1612652101,21,37.1041,-113.5841,62.01,5.75
158,Nizhniy Odes,100,RU,1612652329,86,63.6445,54.856,-21.46,11.48
159,Iqaluit,90,CA,1612652100,80,63.7506,-68.5145,26.6,21.85
160,Aklavik,90,CA,1612652197,76,68.2191,-135.0107,-20.2,3.44
161,Arawa,38,PG,1612652330,66,-6.2132,155.5367,85.6,5.48
162,Aswān,0,EG,1612652330,52,24.0934,32.907,57.96,4.72
163,Villarrica,0,PY,1612652202,80,-25.75,-56.4333,67.75,4.18
164,New Norfolk,79,AU,1612652331,59,-42.7826,147.0587,64.0,1.99
165,Dafeng,22,CN,1612652331,73,23.4517,108.5881,63.46,4.21
166,Belaya Gora,30,RU,1612652157,83,68.5333,146.4167,-33.81,0.63
167,Makakilo City,40,US,1612652331,50,21.3469,-158.0858,77.0,12.66
168,Corigliano Calabro,76,IT,1612652332,97,39.595,16.5177,48.99,2.08
169,Aykhal,4,RU,1612652332,81,66.0,111.5,-32.44,7.74
170,Lavrentiya,0,RU,1612652332,79,65.5833,-171.0,-7.49,2.71
171,Upernavik,95,GL,1612652332,77,72.7868,-56.1549,19.63,3.09
172,Newbury,100,GB,1612652110,94,51.4003,-1.3206,41.0,5.01
173,Linxia Chengguanzhen,100,CN,1612652149,71,35.6003,103.2064,28.15,0.81
174,Ketchikan,75,US,1612652333,93,55.3422,-131.6461,39.2,8.05
175,Nelson Bay,7,AU,1612652333,73,-32.7167,152.15,78.01,11.5
176,Kruisfontein,18,ZA,1612652334,82,-34.0033,24.7314,66.99,1.99
177,Westport,1,US,1612652334,49,41.1415,-73.3579,42.8,13.8
178,Albury,0,AU,1612652334,82,-36.0833,146.9167,70.0,1.14
179,Ostrovnoy,97,RU,1612652334,91,68.0531,39.5131,8.82,10.92
180,Necochea,0,AR,1612652146,73,-38.5473,-58.7368,64.99,3.0
181,Karratha,15,AU,1612652335,65,-20.7377,116.8463,78.35,8.25
182,Cockburn Town,40,TC,1612652335,73,21.4612,-71.1419,78.8,17.27
183,Codrington,100,AU,1612652335,69,-38.2667,141.9667,58.69,12.19
184,Yaan,0,NG,1612652335,17,7.3833,8.5667,80.15,3.09
185,Las Palmas,20,ES,1612652336,72,28.4204,-14.0131,59.0,5.75
186,Marrakesh,75,MA,1612652336,87,31.6315,-8.0083,48.2,6.91
187,Caraballeda,20,VE,1612652336,74,10.6112,-66.8522,84.2,12.91
188,Ilo,99,PE,1612652336,79,-17.6394,-71.3375,71.02,3.47
189,Kuril'sk,100,RU,1612652336,92,45.2333,147.8833,18.52,12.28
190,Kupang,20,ID,1612652337,100,-10.1667,123.5833,77.0,5.75
191,Bulungu,96,CD,1612652337,90,-4.55,18.6,72.57,1.16
192,Panjāb,5,AF,1612652337,84,34.388,67.0233,20.73,1.74
193,Shache,92,CN,1612652337,82,38.4167,77.2406,28.15,1.61
194,Queanbeyan,0,AU,1612652338,63,-35.35,149.2333,69.01,1.14
195,Hambantota,97,LK,1612652238,84,6.1241,81.1185,76.62,16.04
196,Najrān,0,SA,1612652338,48,17.4924,44.1277,62.6,3.44
197,Sarmakovo,90,RU,1612652338,93,43.7456,43.2003,33.01,4.47
198,Darhan,6,MN,1612652339,86,49.4867,105.9228,-3.3,7.2
199,Hong Kong,0,HK,1612652225,63,22.2855,114.1577,64.99,6.38
200,Beasain,97,ES,1612652339,83,43.0502,-2.2009,48.0,4.99
201,Okhotsk,38,RU,1612652339,86,59.3833,143.3,-3.17,16.13
202,Lukovetskiy,40,RU,1612652339,65,64.2956,41.9211,-2.2,8.95
203,Qinhuangdao,14,CN,1612652340,86,39.9317,119.5883,24.26,8.3
204,Goderich,100,CA,1612652340,63,43.7501,-81.7165,21.2,17.27
205,Sembakung,75,ID,1612652340,100,3.8167,117.25,77.0,5.75
206,Bereda,55,ES,1612652341,100,43.2686,-7.5406,39.0,3.0
207,Tamiahua,1,MX,1612652341,78,21.2667,-97.45,74.46,8.95
208,Pangnirtung,82,CA,1612652131,80,66.1451,-65.7125,23.14,2.8
209,San Cristobal,40,VE,1612652212,58,7.7669,-72.225,86.0,9.22
210,Caxito,20,AO,1612652341,83,-8.5785,13.6643,78.8,9.22
211,Constitución,22,CL,1612652117,79,-35.3333,-72.4167,61.68,4.65
212,Ilhabela,51,BR,1612652342,70,-23.7781,-45.3581,74.16,3.47
213,Nosy Varika,99,MG,1612652342,84,-20.5833,48.5333,78.57,9.19
214,Sinnamary,100,GF,1612652343,86,5.3833,-52.95,77.65,15.05
215,College,90,US,1612652343,77,64.8569,-147.8028,-6.0,0.31
216,Paraíso,20,CR,1612652343,57,9.8383,-83.8656,82.4,9.22
217,Port Hueneme,1,US,1612652260,59,34.1478,-119.1951,71.01,8.05
218,Yumen,98,CN,1612652343,68,40.2833,97.2,26.85,1.99
219,Nikolskoye,20,RU,1612652344,78,59.7035,30.7861,8.6,11.18
220,Kununurra,100,AU,1612652344,94,-15.7667,128.7333,80.6,5.75
221,Zheleznogorsk,72,RU,1612652344,92,52.331,35.3711,-3.84,8.59
222,Ranong,72,TH,1612652344,88,9.9658,98.6348,74.7,3.8
223,Katsuura,0,JP,1612652115,65,35.1333,140.3,44.6,3.44
224,Juneau,40,US,1612652194,50,58.3019,-134.4197,24.8,4.61
225,São Marcos,30,BR,1612652345,76,-28.9711,-51.0681,59.61,3.36
226,Bay Roberts,90,CA,1612652346,100,47.5999,-53.2648,45.0,19.57
227,Malanje,100,AO,1612652346,98,-9.5402,16.341,65.41,3.96
228,Praia,75,CV,1612652149,64,14.9215,-23.5087,68.0,23.02
229,Uvalde,1,US,1612652346,15,29.3669,-99.767,75.99,16.11
230,Requena,0,ES,1612652346,67,39.4883,-1.1004,55.4,10.36
231,Araouane,100,ML,1612652347,25,18.9048,-3.5265,73.6,17.9
232,Hirado,20,JP,1612652347,93,33.3597,129.5531,48.0,6.91
233,Sinegorsk,71,RU,1612652347,76,47.1667,142.5,-14.8,4.47
234,Kefamenanu,84,ID,1612652348,86,-9.4467,124.4781,73.62,1.61
235,Fortuna,1,US,1612652099,87,40.5982,-124.1573,55.0,14.97
236,Raudeberg,0,NO,1612652348,73,61.9875,5.1352,23.0,8.05
237,Louisville,1,US,1612652348,39,38.2542,-85.7594,42.8,5.75
238,Pacific Grove,1,US,1612652154,67,36.6177,-121.9166,69.01,7.72
239,Sambava,95,MG,1612652349,91,-14.2667,50.1667,75.04,4.9
240,Baiyin,0,CN,1612652349,35,36.5583,104.2081,28.99,11.18
241,Gorontalo,100,ID,1612652349,86,0.5412,123.0595,76.42,3.69
242,Pisco,75,PE,1612652210,73,-13.7,-76.2167,75.2,5.75
243,Hithadhoo,26,MV,1612652350,74,-0.6,73.0833,81.86,11.9
244,Kumul,11,CN,1612652350,78,42.8,93.45,30.09,5.5
245,Berdigestyakh,58,RU,1612652059,81,62.0989,126.6992,-37.61,4.21
246,Góra,100,PL,1612652168,58,51.6664,16.5349,25.0,5.01
247,Haines Junction,94,CA,1612652351,54,60.7522,-137.5108,-7.6,2.3
248,Amapá,74,BR,1612652352,98,1.0,-52.0,73.74,2.3
249,Asău,100,RO,1612652352,73,46.4333,26.4,28.0,3.67
250,Khani,90,GE,1612652352,93,41.9563,42.9566,46.4,9.22
251,Dunedin,1,NZ,1612652129,81,-45.8742,170.5036,57.99,21.0
252,Madaoua,38,NE,1612652115,20,14.073,5.96,71.01,9.84
253,Petropavlovsk-Kamchatskiy,40,RU,1612652353,63,53.0452,158.6483,26.6,26.84
254,Lompoc,1,US,1612652353,42,34.6391,-120.4579,68.0,13.8
255,Anlu,45,CN,1612652353,67,31.1661,112.5831,50.14,0.96
256,Luang Prabang,0,LA,1612652353,79,19.8856,102.1347,63.9,1.1
257,Havre-St-Pierre,90,CA,1612652229,100,50.2334,-63.5986,28.4,16.11
258,Watertown,20,US,1612652236,33,42.3709,-71.1828,39.2,6.91
259,San Patricio,1,US,1612652108,41,28.017,-97.5169,75.2,9.22
260,Mackay,100,AU,1612652354,83,-21.15,149.2,82.99,5.75
261,Marzuq,0,YE,1612652354,69,14.4,46.4667,57.83,1.43
262,Kichmengskiy Gorodok,100,RU,1612652355,88,59.9816,45.7854,-6.9,10.4
263,Pedro Juan Caballero,0,PY,1612652355,72,-22.5472,-55.7333,63.81,2.55
264,Chokurdakh,26,RU,1612652129,86,70.6333,147.9167,-24.43,3.69
265,Ulaanbaatar,0,MN,1612652181,76,47.9077,106.8832,-22.0,2.24
266,Połczyn-Zdrój,47,PL,1612652192,87,53.7642,16.0957,12.99,3.0
267,Marau,34,BR,1612652356,79,-28.4492,-52.2,62.33,4.45
268,Muroto-misakicho,40,JP,1612652306,87,33.2833,134.15,35.6,8.05
269,Kamen'-na-Obi,31,RU,1612652357,94,53.7884,81.3423,29.26,15.3
270,Manzhouli,1,CN,1612652357,88,49.6,117.4333,-11.18,7.72
271,Pangkalanbuun,100,ID,1612652357,98,-2.6833,111.6167,74.48,2.19
272,Vanderhoof,100,CA,1612652357,91,54.0166,-124.0198,7.65,4.83
273,Tonantins,80,BR,1612652358,89,-2.8731,-67.8022,77.9,0.36
274,Kushālgarh,0,IN,1612652358,37,23.199,74.4507,57.56,8.03
275,Terney,0,RU,1612652358,86,45.0503,136.6092,0.27,13.35
276,Corinth,0,GR,1612652359,81,37.9407,22.9573,54.0,3.78
277,Clonakilty,40,IE,1612652359,93,51.6231,-8.8706,37.99,8.05
278,Eshowe,84,ZA,1612652359,100,-28.8865,31.4699,66.58,4.12
279,Mazagão,40,BR,1612652360,84,-0.115,-51.2894,84.2,11.5
280,Kattivākkam,20,IN,1612652211,94,13.2167,80.3167,68.0,2.3
281,Hanzhong,98,CN,1612652360,55,33.0728,107.0303,44.17,1.5
282,Goroka,98,PG,1612652360,77,-6.0834,145.3873,68.88,0.27
283,Soubre,53,CI,1612652360,89,5.7856,-6.6083,77.04,4.79
284,Kondopoga,100,RU,1612652361,85,62.2057,34.2614,12.2,11.18
285,Touros,40,BR,1612652361,78,-5.1989,-35.4608,78.8,4.61
286,Rocha,0,UY,1612652246,88,-34.4833,-54.3333,65.98,7.96
287,Champerico,20,GT,1612652361,48,14.3,-91.9167,89.6,11.5
288,Magistral'nyy,100,RU,1612652361,93,56.1725,107.4458,6.19,5.75
289,Faya,0,SA,1612652362,81,18.3851,42.4509,50.0,3.04
290,Coquimbo,0,CL,1612652362,68,-29.9533,-71.3436,64.4,13.8
291,Saint-Ambroise,40,CA,1612652362,63,48.5501,-71.3324,21.2,10.36
292,Suleja,36,NG,1612652362,41,9.1758,7.1808,78.8,3.44
293,George Town,20,MY,1612652203,83,5.4112,100.3354,78.8,7.05
294,Olafsvik,56,IS,1612652229,83,64.8945,-23.7142,33.98,14.56
295,Benjamín Aceval,0,PY,1612652363,47,-24.9667,-57.5667,82.4,6.91
296,Namatanai,72,PG,1612652363,68,-3.6667,152.4333,83.7,3.62
297,Bahía Honda,16,CU,1612652363,78,22.9036,-83.1592,78.85,10.96
298,Ca Mau,90,VN,1612652364,88,9.1769,105.15,72.73,0.94
299,Kieta,35,PG,1612652364,69,-6.2167,155.6333,84.49,7.45
300,Kirkwood,90,US,1612652299,47,38.5834,-90.4068,30.2,9.22
301,Victor Harbor,66,AU,1612652364,98,-35.5667,138.6167,63.0,12.21
302,Ji’an,14,CN,1612652364,88,27.1172,114.9793,54.07,2.17
303,Nouadhibou,0,MR,1612652121,72,20.931,-17.0347,62.6,17.27
304,Kamina,100,CD,1612652365,97,-8.7386,24.9906,65.25,5.35
305,Las Vegas,1,US,1612652100,16,36.175,-115.1372,66.0,3.11
306,Lanxi,1,CN,1612652365,56,29.2195,119.477,50.0,1.77
307,Omsukchan,100,RU,1612652366,86,62.5333,155.8,-6.25,4.81
308,Nizhniy Tsasuchey,54,RU,1612652366,88,50.5167,115.1333,-4.2,5.14
309,Barra do Garças,100,BR,1612652366,87,-15.89,-52.2567,75.9,1.54
310,Lagoa,100,PT,1612652366,89,39.05,-27.9833,60.21,26.17
311,Shambu,12,ET,1612652367,48,9.5667,37.1,49.66,0.4
312,Clearwater,91,US,1612652082,83,27.9659,-82.8001,75.0,9.22
313,Edd,19,ER,1612652367,73,13.9297,41.6925,72.73,7.87
314,Bandarbeyla,10,SO,1612652363,80,9.4942,50.8122,75.31,12.12
315,Bytów,54,PL,1612652353,82,54.1706,17.4919,21.0,4.0
316,Constantine,75,DZ,1612652368,41,36.365,6.6147,60.8,28.77
317,Bara,54,NG,1612652176,22,10.3744,10.7288,72.09,8.25
318,Gamba,100,GA,1612652368,86,-2.65,10.0,79.18,5.32
319,Vryburg,40,ZA,1612652368,87,-26.9566,24.7284,66.06,11.07
320,Ilesha,7,NG,1612652369,91,7.1371,5.2583,74.62,3.85
321,Río Hato,20,PA,1612652369,70,8.3833,-80.1667,86.0,4.61
322,Ati,26,TD,1612652369,23,13.2154,18.3353,66.43,10.47
323,Seoul,90,KR,1612652193,100,37.5683,126.9778,35.6,6.91
324,Thurso,90,GB,1612652369,60,58.5927,-3.5259,35.6,24.16
325,Karatau,100,KZ,1612652370,72,43.1667,70.4667,41.11,16.73
326,Inuvik,100,CA,1612652370,76,68.3499,-133.7218,-20.2,4.61
327,Belyy Yar,63,RU,1612652370,92,53.6039,91.3903,6.8,2.24
328,Suntar,99,RU,1612652370,88,62.1444,117.6319,-19.37,2.51
329,Zakamensk,64,RU,1612652370,83,50.3741,103.2863,-3.48,3.33
330,Fort Nelson,1,CA,1612652371,69,58.8053,-122.7002,-16.6,3.44
331,Tomatlán,16,MX,1612652371,57,19.9333,-105.25,80.87,8.05
332,Beloha,9,MG,1612652198,94,-25.1667,45.05,74.84,5.21
333,Nabire,100,ID,1612652371,78,-3.3667,135.4833,78.22,2.73
334,Yinchuan,0,CN,1612652372,79,38.4681,106.2731,29.23,5.12
335,Socorro,1,US,1612652372,13,31.6546,-106.3033,62.6,3.78
336,Rafrāf,20,TN,1612652372,42,37.1904,10.1837,64.4,3.44
337,Yangi Marg`ilon,100,UZ,1612652278,49,40.4272,71.7189,42.8,4.61
338,Saint-Augustin,100,CA,1612652372,95,51.226,-58.6502,33.19,21.79
339,Katobu,100,ID,1612652373,90,-4.9408,122.5276,77.94,0.96
340,Médéa,40,DZ,1612652373,88,36.2642,2.7539,55.4,6.91
341,Ilulissat,9,GL,1612652373,39,69.2167,-51.1,24.8,21.85
342,Severo-Kuril'sk,100,RU,1612652373,93,50.6789,156.125,21.97,14.05
343,Grootfontein,100,NA,1612652109,82,-19.5667,18.1167,69.46,4.14
344,Kavaratti,5,IN,1612652374,60,10.5669,72.642,81.16,10.42
345,Waipawa,100,NZ,1612652374,72,-41.4122,175.5153,70.0,10.36
346,Isfahan,40,IR,1612652374,49,32.6572,51.6776,46.4,4.61
347,Nhulunbuy,75,AU,1612652374,78,-12.2333,136.7667,82.4,11.5
348,Payson,40,US,1612652375,34,40.0444,-111.7321,48.2,4.61
349,La Santisima Trinidad,75,BO,1612652375,55,-14.8333,-64.9,89.6,1.72
350,Saint-Pierre,40,RE,1612652375,83,-21.3393,55.4781,78.8,4.61
351,Port Macquarie,55,AU,1612652346,79,-31.4333,152.9167,82.0,1.99
352,Kyabé,0,TD,1612652376,21,9.4515,18.9449,72.39,7.29
353,Dhekiajuli,23,IN,1612652376,51,26.7,92.5,57.96,1.39
354,Distrikt Paramaribo,40,SR,1612652376,83,5.8667,-55.1667,81.0,11.5
355,Ulladulla,29,AU,1612652376,64,-35.35,150.4667,75.99,3.91
356,Talavera,75,PH,1612652376,83,15.6167,120.9333,77.0,4.61
357,Bolboşi,100,RO,1612652377,93,44.75,23.2167,39.99,1.86
358,Matagami,90,CA,1612652377,79,49.7502,-77.6328,10.4,11.5
359,Sabang,63,ID,1612652377,74,5.8933,95.3214,82.44,14.74
360,Alexandria,0,EG,1612652377,88,31.2156,29.9553,55.4,3.44
361,Gaoua,59,BF,1612652378,18,10.2992,-3.2508,82.08,2.24
362,Carroll,1,US,1612652378,42,39.5501,-77.0164,42.8,5.75
363,Halmstad,0,SE,1612652378,79,56.6745,12.8568,15.8,13.8
364,João Pinheiro,100,BR,1612652379,98,-17.7425,-46.1725,69.3,12.68
365,Pativilca,66,PE,1612652379,74,-10.7,-77.7833,71.6,7.11
366,Deputatsky,1,RU,1612652379,84,69.3,139.9,-34.71,1.57
367,Būndu,75,IN,1612652379,88,23.1833,85.5833,57.2,3.85
368,Cururupu,79,BR,1612652362,86,-1.8283,-44.8683,77.11,3.33
369,Christchurch,90,NZ,1612652368,72,-43.5333,172.6333,64.99,20.71
370,Nelidovo,74,RU,1612652380,92,56.2211,32.7774,-2.58,5.91
371,Roald,20,NO,1612652380,74,62.5833,6.1333,23.0,12.66
372,Bandar,83,ID,1612652381,85,2.05,99.75,71.73,1.43
373,Volksrust,96,ZA,1612652381,96,-27.3654,29.8818,57.07,2.04
374,Osmaniye,0,TR,1612652371,88,37.0742,36.2478,55.0,7.0
375,Baruun-Urt,0,MN,1612652381,84,46.6806,113.2792,-9.72,8.34
376,Samarai,89,PG,1612652225,71,-10.6167,150.6667,84.7,5.44
377,Mandera,1,KE,1612652382,46,3.9366,41.867,77.86,13.53
378,Alofi,100,NU,1612652382,79,-19.0595,-169.9187,84.2,11.5
379,Cherskiy,0,RU,1612652089,80,68.75,161.3,-7.2,4.83
380,Airai,93,TL,1612652382,99,-8.9266,125.4092,64.13,2.59
381,Kleive,3,NO,1612652383,73,62.7954,7.6359,24.8,8.05
382,Mahébourg,40,MU,1612652383,78,-20.4081,57.7,78.8,4.61
383,São Sebastião do Passé,40,BR,1612652177,78,-12.5125,-38.4953,82.4,18.41
384,Wamba,0,NG,1612652384,20,8.9333,8.6,75.92,4.21
385,Moerai,2,PF,1612652384,70,-22.4333,-151.3333,81.55,10.47
386,Havøysund,100,NO,1612652343,94,70.9963,24.6622,27.41,22.01
387,Sept-Îles,100,CA,1612652249,93,50.2001,-66.3821,30.2,9.22
388,Bad Reichenhall,20,DE,1612652385,93,47.7333,12.8833,37.4,1.14
389,Zhezkazgan,69,KZ,1612652385,95,47.8043,67.7144,18.27,18.48
390,Makubetsu,92,JP,1612652385,92,45.3714,141.8211,14.65,14.7
391,Dilla,50,ET,1612652385,39,6.41,38.31,69.03,2.26
392,Port Lincoln,87,AU,1612652120,69,-34.7333,135.8667,61.68,11.23
393,Bathsheba,20,BB,1612652110,69,13.2167,-59.5167,78.8,18.41
394,Aksha,71,RU,1612652386,86,50.2814,113.2867,-6.41,3.94
395,Abhā,0,SA,1612652386,81,18.2164,42.5053,50.0,2.48
396,Shebalino,0,RU,1612652386,90,51.2917,85.6772,22.93,8.23
397,Benguela,23,AO,1612652387,82,-12.5763,13.4055,73.62,3.67
398,Yining,5,CN,1612652387,88,29.0361,114.5636,49.78,1.32
399,Madang,100,PG,1612652387,86,-5.2246,145.7966,78.58,4.38
400,Kajaani,90,FI,1612652387,92,64.2273,27.7285,15.8,6.91
401,Aktau,0,KZ,1612652374,75,43.65,51.2,33.8,6.71
402,Panama City,20,PA,1612652291,74,8.9936,-79.5197,86.0,10.36
403,Fukuechō,0,JP,1612652134,68,32.6881,128.8419,56.26,15.03
404,Villazón,80,BO,1612652388,61,-22.0866,-65.5942,57.79,17.4
405,Mucurapo,20,TT,1612652388,69,10.6667,-61.5333,80.6,12.66
406,Dergachi,100,RU,1612652388,93,51.2328,48.7659,9.99,11.41
407,Baie-Saint-Paul,51,CA,1612652252,92,47.4411,-70.4986,21.2,6.91
408,Mushie,64,CD,1612652389,88,-3.0167,16.9,74.34,0.58
409,Viçosa,100,BR,1612652389,94,-20.7539,-42.8819,68.59,4.81
410,Alice Springs,64,AU,1612652389,31,-23.7,133.8833,80.01,11.5
411,Bilāspur,0,IN,1612652390,46,22.0833,82.15,53.8,5.84
412,Cabral,15,DO,1612652390,73,18.25,-71.2167,75.07,9.15
413,Kenai,90,US,1612652204,86,60.5544,-151.2583,18.0,9.22
414,Luanda,20,AO,1612652386,83,-8.8368,13.2343,78.8,9.22
415,Husavik,75,IS,1612652391,64,66.0449,-17.3389,33.8,8.05
416,Yellowknife,1,CA,1612652282,61,62.456,-114.3525,-34.01,4.61
417,Egvekinot,2,RU,1612652391,78,66.3167,-179.1667,-4.81,7.7
418,Camacha,20,PT,1612652391,62,33.0833,-16.3333,57.2,17.27
419,Piedade,2,BR,1612652392,86,-23.7119,-47.4278,62.44,11.16
420,Chapais,90,CA,1612652392,85,49.7834,-74.8492,14.0,6.91
421,Vao,0,NC,1612652392,83,-22.6667,167.4833,77.4,4.47
422,Kang,74,BW,1612652361,93,-23.6752,22.7876,67.26,9.42
423,Dudinka,0,RU,1612652159,81,69.4058,86.1778,-33.25,9.69
424,Cap Malheureux,7,MU,1612652381,85,-19.9842,57.6142,77.0,1.99
425,Khatanga,0,RU,1612652110,78,71.9667,102.5,-35.93,7.94
426,Geraldton,75,AU,1612652099,88,-28.7667,114.6,68.0,23.02
427,Vanimo,97,PG,1612652394,86,-2.6741,141.3028,79.34,5.77
428,Kazachinskoye,96,RU,1612652395,97,57.6953,93.2761,23.65,8.16
429,Pasadena,75,US,1612652395,64,29.6911,-95.2091,68.0,11.5
430,Chui,0,UY,1612652395,72,-33.6971,-53.4616,69.42,9.84
431,Saint-Joseph,40,RE,1612652395,83,-21.3667,55.6167,78.8,4.61
432,Mayo,1,US,1612652396,45,38.8876,-76.5119,46.99,2.17
433,Tokmak,99,UA,1612652396,84,47.2514,35.7058,26.53,8.59
434,Esim,0,GH,1612652396,88,4.8699,-2.2405,79.86,8.12
435,Nehe,0,CN,1612652396,85,48.4833,124.8333,-10.26,6.35
436,Behshahr,100,IR,1612652397,75,36.6923,53.5526,53.42,3.49
437,Dwārka,0,IN,1612652397,49,22.2394,68.9678,69.04,15.5
438,Neiafu,90,TO,1612652397,94,-18.65,-173.9833,78.8,10.36
439,Correntina,74,BR,1612652398,83,-13.3433,-44.6367,70.79,5.99
440,Tual,100,ID,1612652398,79,-5.6667,132.75,83.8,18.75
441,Athabasca,99,CA,1612652378,64,54.7169,-113.2854,-13.0,2.3
442,Paamiut,0,GL,1612652398,79,61.994,-49.6678,21.92,7.7
443,Atbasar,100,KZ,1612652399,95,51.8,68.3333,16.77,27.94
444,Los Andes,0,CL,1612652399,68,-32.8337,-70.5983,71.01,17.27
445,Manokwari,100,ID,1612652148,83,-0.8667,134.0833,78.13,2.68
446,Kiknur,100,RU,1612652399,91,57.3034,47.2011,-6.45,11.14
447,Catió,76,GW,1612652399,24,11.2833,-15.25,80.26,9.08
448,Nyurba,15,RU,1612652401,84,63.2842,118.3319,-32.03,2.53
449,North Valley,1,US,1612652146,11,35.1734,-106.6234,55.0,6.91
450,Alekseyevsk,100,RU,1612652402,93,57.8406,108.3492,6.13,5.14
451,Tura,100,IN,1612652402,69,25.5198,90.2201,56.12,1.25
452,Iquique,0,CL,1612652110,46,-20.2208,-70.1431,75.2,17.27
453,Byron Bay,8,AU,1612652365,73,-28.65,153.6167,78.8,2.3
454,Maryborough,3,AU,1612652403,48,-25.5333,152.7,87.17,3.51
455,Hervey Bay,13,AU,1612652358,61,-25.2986,152.8535,87.01,10.36
456,Abu Dhabi,0,AE,1612652198,68,24.4667,54.3667,68.0,2.3
457,Puerto Nariño,40,CO,1612652407,70,-3.7703,-70.3831,87.8,4.61
458,Richards Bay,97,ZA,1612652408,88,-28.783,32.0377,72.81,7.94
459,Tongzi,48,CN,1612652411,75,28.7829,105.0877,52.0,1.5
460,Kedgwick,47,CA,1612652414,94,47.6446,-67.3434,17.55,12.01
461,Yangjiang,0,CN,1612652416,83,21.85,111.9667,60.33,2.75
462,Beian,20,NO,1612652417,80,63.6559,9.5683,23.0,11.5
463,Aksarka,97,RU,1612652142,82,66.5606,67.7975,-35.3,20.11
464,Alappuzha,0,IN,1612652418,88,9.49,76.3264,77.0,6.2
465,Worland,75,US,1612652419,73,44.0169,-107.9554,15.8,4.47
466,Springbok,0,ZA,1612652419,72,-29.6643,17.8865,60.57,5.3
467,Carballo,84,ES,1612652419,93,43.213,-8.691,39.99,1.01
468,Leon Valley,1,US,1612652338,19,29.4952,-98.6186,77.0,23.02
469,Tazovsky,70,RU,1612652147,86,67.4667,78.7,-25.62,10.36
470,Copiapó,40,CL,1612652420,68,-27.3667,-70.3333,66.2,12.66
471,Sokol,100,RU,1612652421,90,59.4617,40.1206,-8.73,8.43
472,Hérouville-Saint-Clair,90,FR,1612652421,93,49.2109,-0.3065,42.8,9.22
473,Gouyave,20,GD,1612652421,69,12.1646,-61.7296,80.6,17.27
474,Lucapa,100,AO,1612652421,95,-8.4192,20.7447,67.44,1.61
475,Takhtamygda,53,RU,1612652422,84,54.1,123.5667,-17.48,2.01
476,Brownwood,1,US,1612652422,31,31.7093,-98.9912,62.6,16.11
477,Santa Fe,0,AR,1612652422,33,-31.6333,-60.7,78.51,4.0
478,Sol'-Iletsk,100,RU,1612652423,93,51.1631,54.9918,5.45,14.18
479,Biak,100,ID,1612652423,76,-0.9131,122.8766,77.59,2.8
480,Kamaishi,75,JP,1612652423,100,39.2667,141.8833,32.0,2.3
481,Bambanglipuro,75,ID,1612652423,87,-7.95,110.2833,75.58,5.37
482,Celestún,2,MX,1612652188,75,20.8667,-90.4,76.66,10.49
483,Mandsaur,0,IN,1612652424,41,24.0667,75.0667,54.05,5.3
484,Corn Island,71,NI,1612652424,82,12.1694,-83.0418,80.69,17.83
485,Ibrā’,0,OM,1612652424,80,22.6906,58.5334,49.64,1.36
486,Māngrol,0,IN,1612652425,37,21.1167,70.1167,64.58,12.66
487,Borovichi,95,RU,1612652425,91,58.3878,33.9155,-2.54,7.25
488,Atyrau,0,KZ,1612652401,79,47.1167,51.8833,17.6,6.71
489,Kudahuvadhoo,32,MV,1612652426,77,2.6708,72.8944,81.01,13.4
490,Severodvinsk,40,RU,1612652426,65,64.5635,39.8302,-2.2,8.95
491,Kashgar,20,CN,1612652426,55,39.4547,75.9797,33.8,8.95
492,Mount Gambier,90,AU,1612652426,82,-37.8333,140.7667,57.2,9.22
493,Batemans Bay,3,AU,1612652220,79,-35.7167,150.1833,72.0,4.0
494,Kaniama,100,CD,1612652427,96,-7.5667,24.1833,66.38,1.72
495,Abu Samrah,0,SY,1612652427,71,35.3029,37.1841,50.52,5.39
496,Lagos,20,NG,1612652428,89,6.5833,3.75,82.4,8.05
497,Ternate,100,ID,1612652428,81,0.8,127.4,79.25,4.43
498,Taltal,22,CL,1612652428,66,-25.4,-70.4833,67.46,6.15
499,Mitsamiouli,87,KM,1612652429,72,-11.3847,43.2844,82.65,4.72
500,Shimanovsk,0,RU,1612652429,85,52.0,127.7,-20.76,5.97
501,Mandan,1,US,1612652430,59,46.8267,-100.8896,1.4,8.05
502,Myitkyina,5,MM,1612652430,64,25.3833,97.4,55.04,3.11
503,Mugan,100,CN,1612652430,61,35.9404,101.3842,22.33,0.89
504,Bubaque,73,GW,1612652356,54,11.2833,-15.8333,80.46,17.69
505,Kathmandu,20,NP,1612652431,93,27.7167,85.3167,37.4,3.44
506,Poum,0,NC,1612652431,68,-20.2333,164.0167,79.92,2.95
507,Qaqortoq,13,GL,1612652431,80,60.7167,-46.0333,18.99,4.47
508,Mahon,0,ES,1612652431,82,39.8885,4.2658,57.2,8.05
509,Sobolevo,77,RU,1612652432,92,54.4299,31.8996,-3.62,8.43
510,Sisimiut,0,GL,1612652432,79,66.9395,-53.6735,20.68,17.65
511,Ukiah,1,US,1612652432,32,39.1502,-123.2078,72.0,3.67
512,Usinsk,99,RU,1612652342,82,65.9939,57.5281,-33.36,13.78
513,Camocim,54,BR,1612652433,77,-2.9022,-40.8411,80.06,15.23
514,Laguna,1,US,1612652434,48,38.421,-121.4238,66.0,4.61
515,Abrau-Dyurso,100,RU,1612652434,86,44.69,37.59,28.4,15.66
516,Jacareacanga,100,BR,1612652434,95,-6.2222,-57.7528,74.88,2.21
517,Cañete,29,CL,1612652434,77,-37.8,-73.4,63.7,2.68
518,Xai-Xai,98,MZ,1612652435,82,-25.0519,33.6442,76.1,4.45
519,Cartagena,40,CO,1612652359,70,10.3997,-75.5144,86.0,13.8
520,Nome,90,US,1612652435,79,64.5011,-165.4064,17.6,9.22
521,Sorong,100,ID,1612652435,82,-0.8833,131.25,79.97,2.59
522,Matadi,95,CD,1612652436,90,-5.8167,13.45,77.95,4.36
523,Zhigansk,96,RU,1612652436,80,66.7697,123.3711,-39.51,12.21
524,Ürümqi,90,CN,1612652136,85,43.801,87.6005,8.6,2.24
525,Lingao,0,CN,1612652437,90,19.9103,109.6859,65.35,7.45
526,Yershov,93,RU,1612652437,93,51.3513,48.2766,7.95,11.77
527,Bonfim,97,BR,1612652437,54,3.0833,-59.95,84.33,8.46
528,Goshogawara,75,JP,1612652437,93,40.8044,140.4414,34.0,5.75
529,Bilma,75,NE,1612652438,25,18.6853,12.9164,64.18,7.58
530,Forsytheganj,13,BY,1612652376,93,52.6333,29.7333,1.24,5.44
531,Jinji,0,CN,1612652438,74,23.2281,110.8261,62.1,1.05
532,Barra de Tecoanapa,11,MX,1612652438,60,16.5167,-98.75,83.19,11.18
533,Padang,20,ID,1612652439,94,-0.9492,100.3543,71.6,2.3
534,Kristianstad,44,SE,1612652439,79,56.0313,14.1524,16.0,5.75
535,Imbituba,0,BR,1612652439,64,-28.24,-48.6703,75.2,6.91
536,Tambacounda,0,SN,1612652440,38,13.7539,-13.7586,77.0,9.22
537,Buala,98,SB,1612652440,80,-8.145,159.5921,82.18,9.86
538,Peniche,32,PT,1612652440,73,39.3558,-9.3811,53.01,11.01
539,Inírida,100,CO,1612652440,94,3.8653,-67.9239,77.02,1.83
540,Harper,6,LR,1612652441,88,4.375,-7.7169,79.47,7.9
541,Longyan,39,CN,1612652441,77,25.1072,117.0225,55.53,1.52
542,Verkhnetulomskiy,75,RU,1612652441,86,68.6073,31.7962,23.0,8.95
543,Puerto Santander,40,CO,1612652441,58,8.3636,-72.4063,86.0,9.22
544,Petropavlovka,92,RU,1612652178,83,50.6114,105.3196,-2.92,4.32
545,Provost,100,CA,1612652442,70,52.3501,-110.2683,-14.8,5.75
546,Avera,90,US,1612652158,93,33.194,-82.5271,44.6,4.61
547,Marsá Maţrūḩ,0,EG,1612652443,82,31.3525,27.2453,53.6,5.75
548,‘Āhuimanu,40,US,1612652375,47,21.4447,-157.8378,77.0,6.91
549,Trivandrum,40,IN,1612652443,89,8.4833,76.9167,78.8,5.77
550,Loudi,34,CN,1612652357,83,27.7344,111.9944,53.13,1.03
551,Viedma,40,AR,1612652430,61,-40.8135,-62.9967,68.0,20.94
552,Sioux Lookout,90,CA,1612652444,64,50.1001,-91.917,-11.2,13.8
553,Yurimaguas,61,PE,1612652444,77,-5.9,-76.0833,82.15,0.38
554,Båtsfjord,100,NO,1612652444,95,70.6345,29.7185,25.39,24.16
555,Ploemeur,0,FR,1612652445,87,47.7333,-3.4333,39.0,5.75
556,Bastogne,100,BE,1612652445,77,50.0035,5.7184,41.0,16.28
557,Rājgarh,0,IN,1612652445,40,28.6333,75.3833,55.29,4.41
558,Jalu,0,LY,1612652445,40,29.0331,21.5482,59.47,8.25
559,Kailua,40,US,1612652446,47,21.4022,-157.7394,77.0,6.91
560,Merauke,100,ID,1612652357,79,-8.4667,140.3333,81.97,13.94
561,Mulegé,20,MX,1612652446,25,26.8833,-111.9833,70.75,12.39
562,Muzhi,100,RU,1612652446,84,65.3667,64.6667,-28.8,15.3
563,Tiarei,20,PF,1612652447,61,-17.5333,-149.3333,82.4,13.8
564,Karwar,10,IN,1612652447,55,14.8,74.1333,72.57,4.68
565,Northam,29,GB,1612652447,91,51.0333,-4.2167,39.0,5.99
566,Olinda,20,BR,1612652448,73,-8.0089,-34.8553,78.8,5.75
567,Yokadouma,22,CM,1612652448,63,3.5167,15.05,73.29,2.33
568,Bismarck,1,US,1612652342,42,46.8083,-100.7837,1.4,11.5
569,Two Rivers,40,US,1612652449,66,44.1539,-87.5693,8.01,13.8
570,Kingaroy,40,AU,1612652449,61,-26.5333,151.8333,81.0,8.05
571,Dosso,52,NE,1612652449,18,13.049,3.1937,77.58,9.4
572,Thinadhoo,2,MV,1612652449,75,0.5333,72.9333,81.16,11.56
573,Halifax,59,CA,1612652394,75,44.6453,-63.5724,35.6,10.36
574,Pevek,38,RU,1612652450,88,69.7008,170.3133,-5.75,5.23
