City ID,City,Cloudiness,Country,Date,Humidity,Lat,Lng,Max Temp,Wind Speed
0,Bonavista,95,CA,1612482471,100,48.6499,-53.1147,44.01,6.73
1,Butaritari,100,KI,1612482186,86,3.0707,172.7902,79.63,13.51
2,Jalu,0,LY,1612482241,79,29.0331,21.5482,54.32,6.49
3,Östersund,90,SE,1612482471,92,63.1792,14.6357,15.8,6.91
4,Sambava,64,MG,1612482217,90,-14.2667,50.1667,75.76,6.51
5,Geraldton,90,AU,1612482157,35,-28.7667,114.6,71.6,20.71
6,Padang,20,ID,1612482254,88,-0.9492,100.3543,75.2,3.44
7,Kortkeros,90,RU,1612482472,93,61.8106,51.5806,17.6,6.71
8,Hithadhoo,100,MV,1612482150,76,-0.6,73.0833,82.33,9.86
9,Avarua,95,CK,1612482157,70,-21.2078,-159.775,84.2,5.75
10,Puerto Nariño,75,CO,1612482473,100,-3.7703,-70.3831,75.2,3.44
11,Ilām,0,NP,1612482473,63,26.9167,87.9167,50.56,4.7
12,Kitimat,100,CA,1612482473,96,54.0524,-128.6534,34.0,2.1
13,Sur,0,OM,1612482252,70,22.5667,59.5289,65.43,4.99
14,Mikhaylovka,100,RU,1612482474,87,50.06,43.2379,44.74,14.09
15,Punta Arenas,0,CL,1612482151,47,-53.15,-70.9167,55.4,26.46
16,Lamu,24,KE,1612482475,86,-2.2717,40.902,75.9,9.73
17,Nevşehir,0,TR,1612482326,93,38.9167,34.6667,37.4,8.05
18,Khani,90,GE,1612482475,81,41.9563,42.9566,44.6,2.3
19,Rikitea,97,PF,1612482163,68,-23.1203,-134.9692,78.78,11.27
20,Saint Paul Harbor,0,US,1612482151,90,57.79,-152.4072,32.65,2.8
21,Touros,0,BR,1612482218,69,-5.1989,-35.4608,80.6,11.5
22,Yakeshi,100,CN,1612482476,94,49.2833,120.7333,4.77,8.99
23,Airai,100,TL,1612482184,100,-8.9266,125.4092,65.64,4.09
24,Hilo,75,US,1612482150,73,19.7297,-155.09,73.4,19.57
25,Tigbao,78,PH,1612482477,81,12.5546,123.3389,79.57,16.67
26,Kamwenge,98,UG,1612482477,79,0.1866,30.4539,64.76,1.88
27,Desna,99,UA,1612482477,80,50.9273,30.7605,30.0,22.37
28,Evora,40,PT,1612482478,100,38.5667,-7.9,50.0,8.05
29,Uauá,62,BR,1612482478,43,-9.8414,-39.4817,83.88,11.25
30,Weihe,51,CN,1612482478,70,32.9952,105.3247,35.87,5.17
31,San Cristobal,40,VE,1612482478,58,7.7669,-72.225,84.2,9.22
32,Luanda,75,AO,1612482213,78,-8.8368,13.2343,80.6,6.91
33,Albany,20,US,1612482001,55,42.6001,-73.9662,33.8,4.61
34,East London,91,ZA,1612482162,74,-33.0153,27.9116,72.91,6.71
35,Bethel,1,US,1612482182,69,41.3712,-73.414,33.8,2.66
36,Halifax,100,CA,1612482303,100,44.6453,-63.5724,36.0,3.11
37,Souillac,40,MU,1612482193,73,-20.5167,57.5167,78.8,11.5
38,Chase,100,CA,1612482480,86,50.8165,-119.6857,33.01,2.3
39,Pevek,3,RU,1612482156,78,69.7008,170.3133,-13.05,10.96
40,Kapaa,75,US,1612482187,56,22.0752,-159.319,71.6,9.22
41,La Rioja,0,ES,1612482480,93,42.25,-2.5,44.6,1.14
42,Hong Kong,35,HK,1612482007,79,22.2855,114.1577,64.0,1.01
43,Miraflores,1,MX,1612482481,8,19.2167,-98.8083,77.0,9.22
44,Iquique,0,CL,1612482214,68,-20.2208,-70.1431,71.6,12.66
45,Saint-Joseph,75,RE,1612482269,69,-21.3667,55.6167,80.6,4.61
46,Narsaq,88,GL,1612482206,53,60.9167,-46.05,15.8,6.26
47,Luau,22,AO,1612482221,91,-10.7073,22.2247,64.18,0.04
48,Katsuura,20,JP,1612482194,45,35.1333,140.3,44.01,16.11
49,Dauriya,26,RU,1612482482,90,49.9333,116.8667,4.08,11.12
50,Busselton,0,AU,1612482153,75,-33.65,115.3333,60.01,1.01
51,Upernavik,40,GL,1612482160,69,72.7868,-56.1549,-7.37,4.68
52,Umm Hājar,0,TD,1612482483,24,13.2954,19.6966,67.24,11.72
53,Comodoro Rivadavia,0,AR,1612482439,40,-45.8667,-67.5,75.25,8.66
54,Ushuaia,20,AR,1612482154,71,-54.8,-68.3,51.8,36.82
55,Vila Franca do Campo,20,PT,1612482191,62,37.7167,-25.4333,55.4,9.22
56,Klaksvík,20,FO,1612482230,64,62.2266,-6.589,33.8,19.57
57,Wajima,75,JP,1612482426,100,37.4,136.9,30.2,4.61
58,Charters Towers,93,AU,1612482485,65,-20.1,146.2667,82.15,11.32
59,Kudahuvadhoo,100,MV,1612482438,74,2.6708,72.8944,81.59,17.29
60,Thompson,90,CA,1612482270,77,55.7435,-97.8558,-7.6,9.22
61,Havøysund,75,NO,1612482176,64,70.9963,24.6622,30.2,18.41
62,Kuala Pilah,20,MY,1612482486,83,2.7389,102.2487,75.0,4.61
63,Hobart,75,AU,1612481936,78,-42.8794,147.3294,73.0,5.75
64,Ilulissat,0,GL,1612482171,35,69.2167,-51.1,-0.4,14.97
65,New Norfolk,78,AU,1612482190,65,-42.7826,147.0587,73.0,1.01
66,Saldanha,0,ZA,1612482246,82,-33.0117,17.9442,62.6,6.91
67,Kaitangata,32,NZ,1612482188,68,-46.2817,169.8464,57.99,17.0
68,Portland,90,US,1612482356,87,45.5234,-122.6762,46.0,5.75
69,Berlevåg,100,NO,1612482442,91,70.8578,29.0864,28.47,17.98
70,Honningsvåg,100,NO,1612482151,90,70.9821,25.9704,30.78,17.78
71,Hermanus,27,ZA,1612482150,86,-34.4187,19.2345,66.99,1.01
72,Boyolangu,55,ID,1612482488,87,-8.1181,111.8935,76.75,6.08
73,Jamestown,1,US,1612482150,47,42.097,-79.2353,33.8,6.91
74,Saint-Philippe,75,RE,1612482183,69,-21.3585,55.7679,80.6,4.61
75,Quatre Cocos,40,MU,1612482167,73,-20.2078,57.7625,79.0,11.5
76,Ürümqi,79,CN,1612482204,85,43.801,87.6005,6.8,4.47
77,Mar del Plata,40,AR,1612482157,77,-38.0023,-57.5575,64.99,10.36
78,Ketchikan,90,US,1612482257,100,55.3422,-131.6461,41.0,2.8
79,Ponta do Sol,94,PT,1612482181,64,32.6667,-17.1,50.0,5.01
80,West Wendover,1,US,1612482471,24,40.7391,-114.0733,42.8,13.8
81,Dikson,100,RU,1612482170,91,73.5069,80.5464,-4.49,15.17
82,Hobyo,15,SO,1612482195,80,5.3505,48.5268,76.05,15.23
83,Iztapa,1,GT,1612482490,61,13.9333,-90.7075,84.2,6.91
84,Yandyki,100,RU,1612482491,92,45.7691,47.1258,40.98,10.09
85,Novo Aripuanã,77,BR,1612482437,87,-5.1206,-60.3797,78.6,2.15
86,Nikolskoye,90,RU,1612482152,85,59.7035,30.7861,9.0,8.95
87,Paso de Carrasco,40,UY,1612482491,73,-34.8603,-56.0522,68.0,11.5
88,Bambous Virieux,40,MU,1612482215,73,-20.3428,57.7575,79.0,11.5
89,Nyurba,79,RU,1612482492,81,63.2842,118.3319,-39.78,5.3
90,Cherskiy,2,RU,1612482224,74,68.75,161.3,-11.4,10.6
91,Mount Gambier,75,AU,1612481952,94,-37.8333,140.7667,55.4,17.27
92,Antalaha,83,MG,1612482068,88,-14.9003,50.2788,74.41,4.56
93,Mahébourg,40,MU,1612482163,73,-20.4081,57.7,78.8,11.5
94,Tiznit Province,100,MA,1612482463,79,29.5833,-9.5,50.7,6.51
95,Norman Wells,20,CA,1612482180,67,65.282,-126.8329,-38.2,2.3
96,Bluff,58,NZ,1612482180,65,-46.6,168.3333,57.72,7.47
97,Provideniya,100,RU,1612482164,88,64.3833,-173.3,-6.38,26.87
98,Saurimo,90,AO,1612482494,94,-9.6608,20.3916,64.36,0.89
99,Vaini,75,TO,1612482156,94,-21.2,-175.2,80.6,6.91
100,Port Maria,72,JM,1612482392,96,18.3685,-76.8895,73.0,10.2
101,Bredasdorp,76,ZA,1612482159,77,-34.5322,20.0403,68.0,6.91
102,Japura,93,ID,1612482472,88,-0.3167,102.35,72.23,1.92
103,Malanje,82,AO,1612482495,97,-9.5402,16.341,63.16,2.17
104,São Miguel do Araguaia,57,BR,1612482464,77,-13.275,-50.1628,77.27,3.13
105,Hamilton,90,US,1612481982,69,39.1834,-84.5333,37.0,20.71
106,Boundiali,4,CI,1612482495,21,9.5217,-6.4869,73.42,2.21
107,Atuona,25,PF,1612482191,71,-9.8,-139.0333,78.55,10.8
108,Tessalit,75,ML,1612482440,21,20.1986,1.0114,68.31,14.94
109,Kavaratti,61,IN,1612482229,76,10.5669,72.642,80.76,10.67
110,Abalak,100,RU,1612482496,97,58.1286,68.5944,13.41,7.45
111,Puerto Maldonado,75,PE,1612482334,95,-12.6,-69.1833,75.45,5.19
112,Laguna,1,US,1612482201,39,38.421,-121.4238,60.8,9.22
113,Havre-St-Pierre,90,CA,1612482166,93,50.2334,-63.5986,32.0,4.61
114,Yar-Sale,69,RU,1612482474,87,66.8333,70.8333,-21.42,6.8
115,Bogorodskoye,100,RU,1612482497,96,56.55,37.8833,10.44,8.95
116,Jambi City,88,ID,1612482497,90,-1.6,103.6167,72.91,3.91
117,Safaga,0,EG,1612482498,59,26.7292,33.9365,60.8,9.22
118,Saskylakh,0,RU,1612482191,75,71.9167,114.0833,-40.56,3.13
119,Bathsheba,20,BB,1612482203,61,13.2167,-59.5167,78.8,19.57
120,Goderich,96,CA,1612482499,59,43.7501,-81.7165,30.2,14.97
121,São Félix do Xingu,24,BR,1612482499,81,-6.6447,-51.995,77.11,2.06
122,Tilichiki,68,RU,1612482433,93,60.4667,166.1,-4.22,16.02
123,Itoman,40,JP,1612482487,67,26.1247,127.6694,62.6,6.91
124,Sterling,90,US,1612482499,44,39.0062,-77.4286,37.99,5.79
125,Mataura,51,NZ,1612482158,47,-46.1927,168.8643,68.94,3.42
126,Lorengau,99,PG,1612482276,80,-2.0226,147.2712,80.83,6.2
127,Qaanaaq,55,GL,1612482156,61,77.484,-69.3632,-20.94,8.57
128,Freeport,1,US,1612482500,56,40.6576,-73.5832,39.2,3.44
129,Cayenne,75,GF,1612482162,83,4.9333,-52.3333,78.8,8.05
130,Melfi,0,IT,1612482501,93,40.9965,15.6514,50.0,5.75
131,Esperance,40,AU,1612482161,67,-33.8667,121.9,59.0,4.61
132,Santa Marta,72,CO,1612482317,76,11.2408,-74.199,79.45,15.32
133,Burley,20,US,1612482501,60,42.5357,-113.7928,35.6,19.57
134,Puerto Ayora,39,EC,1612482159,88,-0.7393,-90.3518,79.0,7.0
135,Shintomi,40,JP,1612482502,81,32.0785,131.4723,37.4,8.05
136,Faanui,15,PF,1612482234,69,-16.4833,-151.75,81.19,7.18
137,Araouane,93,ML,1612482502,15,18.9048,-3.5265,74.97,7.83
138,Tuktoyaktuk,75,CA,1612482202,74,69.4541,-133.0374,-34.6,12.66
139,Khudumelapye,98,BW,1612482503,92,-23.8833,24.75,67.82,7.63
140,Natal,0,BR,1612482216,69,-5.795,-35.2094,80.6,10.36
141,Port Alfred,16,ZA,1612482165,88,-33.5906,26.891,66.0,8.99
142,Zhigansk,0,RU,1612482216,75,66.7697,123.3711,-43.01,12.21
143,Solnechnyy,41,RU,1612482453,82,50.7214,136.6319,-16.47,2.57
144,Dingle,66,PH,1612482455,86,10.9995,122.6711,78.06,11.3
145,Mossamedes,0,AO,1612482460,70,-15.1961,12.1522,71.58,7.0
146,Carnarvon,100,AU,1612482170,79,-24.8667,113.6333,79.23,23.49
147,San Quintín,62,MX,1612482209,66,30.4833,-115.95,60.57,18.99
148,George Town,20,MY,1612482193,83,5.4112,100.3354,75.2,7.76
149,Cape Town,0,ZA,1612482161,77,-33.9258,18.4232,68.0,9.22
150,Tuburan,75,PH,1612482505,100,6.6439,122.2736,75.2,10.04
151,Mumbwa,76,ZM,1612482506,93,-14.9783,27.0619,64.36,2.77
152,Bindura,44,ZW,1612482506,91,-17.3019,31.3306,64.0,1.14
153,Ponta Delgada,20,PT,1612482452,62,37.7333,-25.6667,55.4,9.22
154,Nome,90,US,1612482277,72,64.5011,-165.4064,6.01,16.11
155,Yellowknife,20,CA,1612482065,68,62.456,-114.3525,-25.6,10.36
156,Sitka,75,US,1612482236,100,57.0531,-135.33,37.4,13.8
157,Mangai,93,CD,1612482507,95,-4.05,19.5333,71.65,2.06
158,Khatanga,0,RU,1612482152,78,71.9667,102.5,-30.75,8.88
159,Wah,0,PK,1612482507,78,33.798,72.6957,46.99,1.99
160,Lixouri,43,GR,1612482507,81,38.2019,20.4314,55.26,2.82
161,Ancud,0,CL,1612482168,38,-41.8697,-73.8203,78.8,6.91
162,Majene,98,ID,1612482508,72,-3.5403,118.9707,81.07,3.42
163,Coyhaique,0,CL,1612482482,30,-45.5752,-72.0662,82.4,4.61
164,Yangi Marg`ilon,4,UZ,1612482278,64,40.4272,71.7189,32.0,6.91
165,Kiryat Gat,100,IL,1612482484,100,31.61,34.7642,55.99,8.79
166,Coleraine,75,GB,1612482509,100,55.1333,-6.6667,42.8,4.61
167,Huaidian,78,CN,1612482510,66,33.4333,115.0333,43.47,6.46
168,Tevaitoa,40,PF,1612482510,66,-16.7833,-151.5,81.52,7.65
169,Panacan,40,PH,1612482510,88,9.2463,118.4082,75.2,9.22
170,Key West,1,US,1612482217,68,24.5557,-81.7826,64.4,3.44
171,Ostrovnoy,100,RU,1612482219,93,68.0531,39.5131,11.12,21.39
172,Rawson,0,AR,1612482163,20,-43.3002,-65.1023,85.91,25.19
173,Tres Picos,0,MX,1612482511,60,15.8667,-93.5333,77.85,3.0
174,Ulaanbaatar,40,MN,1612482511,85,47.9077,106.8832,-0.4,2.24
175,Santa Ana,20,US,1612482511,59,33.7456,-117.8678,69.01,4.61
176,Kruisfontein,0,ZA,1612482211,93,-34.0033,24.7314,64.0,2.71
177,Tasiilaq,75,GL,1612482173,80,65.6145,-37.6368,26.6,17.27
178,Am Timan,8,TD,1612482154,21,11.0297,20.2827,73.8,8.86
179,Jacmel,10,HT,1612482512,72,18.2342,-72.5347,75.96,4.56
180,Necochea,0,AR,1612482512,75,-38.5473,-58.7368,63.0,6.24
181,Tuatapere,78,NZ,1612482204,51,-46.1333,167.6833,67.39,4.41
182,Torbay,90,CA,1612482174,100,47.6666,-52.7314,42.01,2.3
183,Deputatsky,69,RU,1612482428,85,69.3,139.9,-25.55,4.38
184,Formosa do Rio Preto,83,BR,1612482513,87,-11.0483,-45.1931,72.25,3.13
185,Kalmunai,100,LK,1612482514,84,7.4167,81.8167,76.08,9.73
186,Sampit,100,ID,1612482514,96,-2.5333,112.95,74.97,1.32
187,Holme,90,DK,1612482514,86,56.1138,10.1725,26.6,8.05
188,Lompoc,1,US,1612482021,51,34.6391,-120.4579,62.6,16.11
189,Carlton,90,US,1612482515,93,45.2943,-123.1765,45.0,6.91
190,Los Aquijes,0,PE,1612482515,69,-14.0967,-75.6908,75.2,19.57
191,Lebu,0,CL,1612482150,74,-37.6167,-73.65,63.23,2.19
192,Marrakesh,40,MA,1612481971,87,31.6315,-8.0083,53.6,4.61
193,Cuencamé de Ceniceros,34,MX,1612482516,13,24.8711,-103.6964,80.01,10.45
194,Caconda,92,AO,1612482517,69,-13.7333,15.0667,61.86,3.24
195,Beringovskiy,100,RU,1612482198,92,63.05,179.3167,-0.83,8.97
196,Fort-Shevchenko,98,KZ,1612482517,92,44.5086,50.263,43.77,10.4
197,Calabozo,89,VE,1612482517,49,8.9242,-67.4293,86.76,5.64
198,Agüimes,75,ES,1612482518,72,27.9054,-15.4461,60.01,6.91
199,Barrow,1,US,1612481911,83,71.2906,-156.7887,-25.6,6.91
200,Sawākin,69,SD,1612482518,63,19.1059,37.3321,75.06,17.36
201,Praia da Vitória,75,PT,1612482518,87,38.7333,-27.0667,53.6,21.65
202,Sri Aman,99,MY,1612482518,100,1.2376,111.4621,73.4,3.44
203,Dunedin,37,NZ,1612482207,69,-45.8742,170.5036,55.99,21.99
204,Aklavik,75,CA,1612482241,66,68.2191,-135.0107,-41.8,2.3
205,Amapá,100,BR,1612482495,98,1.0,-52.0,72.97,4.25
206,Itarema,78,BR,1612482255,79,-2.9248,-39.9167,78.57,12.06
207,Vaitape,14,PF,1612482519,70,-16.5167,-151.75,81.19,7.31
208,Yanam,0,IN,1612482520,83,16.7333,82.2167,62.11,2.89
209,Xai-Xai,98,MZ,1612482456,87,-25.0519,33.6442,77.04,3.47
210,Bilma,0,NE,1612482172,32,18.6853,12.9164,60.49,5.82
211,Najrān,0,SA,1612482165,31,17.4924,44.1277,60.8,0.38
212,Gwadar,0,PK,1612482247,30,25.1216,62.3254,65.61,9.51
213,Ambilobe,71,MG,1612482198,93,-13.2,49.05,74.05,1.95
214,Kimbe,100,PG,1612482450,91,-5.5502,150.1429,76.14,2.84
215,Guerrero Negro,100,MX,1612482249,61,27.9769,-114.0611,63.36,19.46
216,Zinder,0,NE,1612482522,23,13.8072,8.9881,67.42,11.72
217,Uyuni,88,BO,1612482522,49,-20.4597,-66.825,59.13,16.33
218,Dandong,6,CN,1612482522,96,40.1292,124.3947,19.92,3.83
219,Flinders,47,AU,1612482250,75,-34.5833,150.8552,81.0,5.01
220,Baruun-Urt,45,MN,1612482238,92,46.6806,113.2792,8.19,5.88
221,Flin Flon,75,CA,1612482305,77,54.7682,-101.865,-4.0,10.36
222,Karratha,33,AU,1612482225,76,-20.7377,116.8463,82.54,12.5
223,Cockburn Town,0,TC,1612482237,67,21.4612,-71.1419,74.23,15.77
224,Hofn,100,IS,1612482215,80,64.2539,-15.2082,35.92,16.02
225,Mil'kovo,52,RU,1612482523,87,54.7167,158.6167,3.25,4.61
226,Eydhafushi,100,MV,1612482524,73,5.1033,73.0708,81.27,8.46
227,Lagoa,25,PT,1612482166,73,39.05,-27.9833,54.86,21.52
228,Cidreira,45,BR,1612482157,71,-30.1811,-50.2056,69.22,15.93
229,Maniitsoq,8,GL,1612482195,71,65.4167,-52.9,10.56,6.69
230,Kanniyākumāri,4,IN,1612482524,68,8.0833,77.5667,75.36,20.13
231,Dawson Creek,90,CA,1612482525,65,55.7666,-120.2362,-2.2,4.61
232,Grandview,1,US,1612482525,64,38.8858,-94.533,32.0,21.85
233,Hirara,20,JP,1612482436,72,24.8,125.2833,62.6,5.75
234,Lavrentiya,100,RU,1612482221,87,65.5833,-171.0,-7.71,20.45
235,Severo-Kuril'sk,77,RU,1612482154,88,50.6789,156.125,11.88,10.85
236,Gizo Government Station,47,SB,1612482526,67,-8.103,156.8419,85.53,9.98
237,Chabahar,0,IR,1612482526,67,25.2919,60.643,65.39,4.59
238,Port Elizabeth,0,ZA,1612482013,88,-33.918,25.5701,66.2,2.3
239,Río Gallegos,0,AR,1612482431,28,-51.6226,-69.2181,69.8,27.63
240,Raja,0,SS,1612482527,21,8.4596,25.678,72.86,6.8
241,Marsaxlokk,0,MT,1612481879,94,35.8419,14.5431,59.0,10.36
242,Bambanglipuro,93,ID,1612482469,82,-7.95,110.2833,79.0,3.65
243,Cabo San Lucas,20,MX,1612482036,30,22.8909,-109.9124,86.0,8.05
244,Ballangen,90,NO,1612482528,93,68.3428,16.8315,21.2,1.14
245,Souris,90,CA,1612482528,78,49.6172,-100.2612,3.2,21.85
246,Reconquista,27,AR,1612482528,63,-29.15,-59.65,71.28,5.88
247,Rapid City,75,US,1612482427,37,44.0805,-103.231,37.4,27.63
248,Cururupu,42,BR,1612482463,87,-1.8283,-44.8683,76.78,4.0
249,Athabasca,100,CA,1612482529,71,54.7169,-113.2854,3.2,10.36
250,Salalah,40,OM,1612482448,73,17.0151,54.0924,71.6,4.61
251,Nalhāti,6,IN,1612482529,48,24.3,87.8167,57.22,1.52
252,Hearst,99,CA,1612482530,48,49.6835,-83.6665,35.6,9.22
253,Mayor Pablo Lagerenza,87,PY,1612482530,56,-19.9309,-60.7718,79.0,6.13
254,Fortuna,1,US,1612482205,71,40.5982,-124.1573,55.0,11.5
255,Patnos,94,TR,1612482530,94,39.2336,42.8634,24.98,1.95
256,Castro,49,BR,1612482153,95,-24.7911,-50.0119,67.1,4.79
257,Esim,1,GH,1612482213,87,4.8699,-2.2405,79.52,6.91
258,Blitar,61,ID,1612482531,87,-8.0983,112.1681,76.03,8.75
259,Kavieng,95,PG,1612482226,75,-2.5744,150.7967,83.8,6.98
260,Kachīry,96,KZ,1612482531,97,53.0675,76.1036,16.03,7.56
261,Trudobelikovskiy,100,RU,1612482532,100,45.2686,38.1631,50.0,1.99
262,Hasaki,20,JP,1612482163,56,35.7333,140.8333,37.4,6.91
263,Niquelândia,68,BR,1612482492,88,-14.4739,-48.4597,72.9,1.34
264,Caranavi,100,BO,1612482532,96,-15.8167,-67.55,65.68,1.48
265,Sakakah,75,SA,1612482532,88,29.9697,40.2064,55.4,9.22
266,Sabha,0,LY,1612482432,39,27.0377,14.4283,55.04,8.43
267,Bandarbeyla,17,SO,1612482235,70,9.4942,50.8122,71.83,12.21
268,El Alto,13,PE,1612482533,79,-4.2714,-81.2147,73.27,14.52
269,Vestmannaeyjar,100,IS,1612482446,72,63.4427,-20.2734,39.85,31.18
270,Jacareacanga,62,BR,1612482503,82,-6.2222,-57.7528,78.4,2.3
271,Ribeira Grande,32,PT,1612482174,71,38.5167,-28.7,55.65,21.0
272,Ambanja,56,MG,1612482534,89,-13.6833,48.45,75.0,3.85
273,Garden City,90,US,1612482330,59,42.3256,-83.331,34.0,12.66
274,Gravdal,76,NO,1612482534,84,68.1214,13.5031,35.06,17.4
275,Arraial do Cabo,0,BR,1612482189,81,-22.9661,-42.0278,77.85,27.11
276,Acaraú,79,BR,1612482201,79,-2.8856,-40.12,78.78,13.71
277,Mount Isa,100,AU,1612482182,51,-20.7333,139.5,87.8,17.27
278,Gēdo,54,ET,1612482535,42,9.0167,37.45,56.05,0.96
279,Chui,62,UY,1612482214,84,-33.6971,-53.4616,64.98,13.02
280,Navalgund,42,IN,1612482536,53,15.5667,75.3667,65.19,7.05
281,Neyshabur,23,IR,1612482354,55,36.2133,58.7958,41.9,1.23
282,Cairns,75,AU,1612482359,70,-16.9167,145.7667,89.01,1.14
283,Bojnice,66,SK,1612482264,100,48.7851,18.5864,35.01,1.66
284,Kulu,0,TR,1612482537,65,39.0951,33.0799,43.77,8.72
285,Burayevo,100,RU,1612482537,98,55.8407,55.4083,34.39,8.88
286,Pouébo,31,NC,1612482537,72,-20.4,164.5667,83.07,10.07
287,Chongwe,90,ZM,1612482537,94,-15.3292,28.682,65.21,1.48
288,Pangnirtung,90,CA,1612482241,78,66.1451,-65.7125,8.6,9.22
289,Nicolás Bravo,40,MX,1612482489,65,18.45,-88.9167,78.8,16.11
290,Riyadh,0,SA,1612482070,25,24.6877,46.7219,64.4,5.75
291,Brae,75,GB,1612482196,60,60.3964,-1.353,35.6,12.66
292,Inhambane,3,MZ,1612482464,84,-23.865,35.3833,80.53,2.73
293,Te Anau,84,NZ,1612482169,52,-45.4167,167.7167,70.34,1.12
294,Tarboro,1,US,1612482539,31,35.8968,-77.5358,46.4,3.44
295,Manakara,80,MG,1612482539,91,-22.1333,48.0167,76.01,5.12
296,Buala,24,SB,1612482239,76,-8.145,159.5921,83.95,9.26
297,Trairi,69,BR,1612482540,79,-3.2778,-39.2689,78.66,8.86
298,Camacha,75,PT,1612482540,82,33.0833,-16.3333,53.6,12.66
299,Nelson Bay,20,AU,1612482272,51,-32.7167,152.15,82.4,13.8
300,Yinzhu,0,CN,1612482540,75,35.8786,119.9753,41.0,11.18
301,Morehead,90,US,1612482436,87,37.2711,-87.1764,45.0,10.36
302,Kalnibolotskaya,100,RU,1612482541,84,46.0058,40.4568,48.9,19.82
303,Kralendijk,75,BQ,1612482541,83,12.15,-68.2667,80.6,19.57
304,Burnie,99,AU,1612482200,96,-41.0667,145.9167,70.0,8.99
305,Labuan,20,MY,1612482541,89,5.2767,115.2417,78.8,2.3
306,Constitución,34,CL,1612482205,91,-35.3333,-72.4167,60.75,3.78
307,Khuzhir,97,RU,1612482542,89,53.1939,107.3397,11.37,7.36
308,Rumoi,100,JP,1612482542,93,43.9344,141.6428,17.62,22.64
309,Ganzhou,79,CN,1612482542,89,28.8184,115.4327,51.17,2.84
310,Marawi,78,PH,1612482434,83,7.9986,124.2928,75.99,5.01
311,Pinega,100,RU,1612482543,93,64.7001,43.3936,1.69,11.72
312,Rio Grande,20,BR,1612482479,73,-32.035,-52.0986,71.6,17.27
313,Tocantins,0,BR,1612482543,94,-10.5,-48.0,78.8,3.44
314,Konëvo,100,RU,1612482543,94,62.1215,39.3192,6.49,7.63
315,Saravan,75,AM,1612482475,93,39.7196,45.6483,35.6,1.59
316,Codrington,100,AU,1612482179,80,-38.2667,141.9667,55.58,11.77
317,Bengkulu,75,ID,1612482182,84,-3.8004,102.2655,75.33,4.43
318,Palāsa,45,IN,1612482545,66,18.7667,84.4167,63.81,4.32
319,Huarmey,95,PE,1612482199,72,-10.0681,-78.1522,71.96,6.02
320,Kaka,31,TM,1612482545,50,37.3482,59.6143,46.27,3.27
321,Ust'-Kulom,100,RU,1612482545,97,61.6864,53.6902,16.52,5.03
322,Turinsk,96,RU,1612482545,97,58.0458,63.696,13.8,5.46
323,Tiksi,100,RU,1612482252,88,71.6872,128.8694,-21.78,7.36
324,Mae Sai,0,TH,1612482546,100,20.4335,99.8762,60.8,2.04
325,Krasne,90,UA,1612482546,86,49.9145,24.6134,30.2,6.71
326,Amahai,100,ID,1612482546,79,-3.3333,128.9167,79.63,3.89
327,Labuhan,98,ID,1612482244,83,-6.8844,112.2051,80.22,15.5
328,Palmas de Monte Alto,86,BR,1612482547,84,-14.2672,-43.1619,72.84,4.03
329,Iskateley,52,RU,1612482193,88,67.6803,53.1512,-16.92,12.19
330,Bolgatanga,0,GH,1612482547,17,10.7856,-0.8514,79.66,6.87
331,Shingū,40,JP,1612482439,56,33.7333,135.9833,41.0,8.05
332,Ambulu,67,ID,1612482548,82,-8.345,113.6058,78.82,1.99
333,Bangui,0,CF,1612482548,35,4.3612,18.555,73.9,1.68
334,São João da Barra,3,BR,1612481987,81,-21.6403,-41.0511,78.15,22.64
335,Husavik,0,IS,1612482269,63,66.0449,-17.3389,26.6,13.8
336,College,20,US,1612482235,76,64.8569,-147.8028,-13.0,5.75
337,Bosobolo,9,CD,1612482549,58,4.1833,19.9,73.49,3.15
338,Talaya,100,RU,1612482549,85,61.3833,152.75,-16.92,4.14
339,San Patricio,20,US,1612482477,61,28.017,-97.5169,84.2,16.11
340,Dalnerechensk,14,RU,1612482549,86,45.9339,133.7225,-11.85,6.76
341,Oudtshoorn,0,ZA,1612482549,94,-33.5907,22.2014,62.6,2.3
342,Ovalle,0,CL,1612482550,61,-30.5983,-71.2003,66.83,4.07
343,Sola,75,VU,1612482262,70,-13.8833,167.55,87.8,5.75
344,Palmer,20,US,1612482550,59,42.1584,-72.3287,33.01,3.44
345,Pļaviņas,9,LV,1612482550,95,56.6178,25.7255,7.84,4.54
346,Richards Bay,100,ZA,1612482201,91,-28.783,32.0377,74.71,8.61
347,Leningradskiy,100,RU,1612482202,85,69.3833,178.4167,-26.43,11.5
348,Fairmont,98,US,1612482551,64,39.4851,-80.1426,37.0,4.5
349,Copperas Cove,1,US,1612482285,36,31.1241,-97.9031,66.2,18.41
350,Port Lincoln,57,AU,1612482480,70,-34.7333,135.8667,62.83,22.84
351,Kongoussi,10,BF,1612482552,18,13.3258,-1.5347,74.8,8.39
352,Wadena,90,US,1612482552,78,46.4425,-95.1361,8.6,17.27
353,Artyom,0,AZ,1612482261,93,40.4723,50.333,46.4,20.71
354,Faya,0,SA,1612482186,76,18.3851,42.4509,59.0,5.75
355,Bedelē,18,ET,1612482553,58,8.456,36.353,56.55,2.53
356,Iqaluit,90,CA,1612482043,85,63.7506,-68.5145,12.2,12.66
357,Mathbaria,0,BD,1612482553,56,22.2876,89.9593,58.15,3.27
358,Alta Floresta,40,BR,1612482260,100,-9.8756,-56.0861,75.2,1.14
359,Moose Factory,75,CA,1612482443,59,51.2585,-80.6094,33.8,9.22
360,Khovd,83,MN,1612482554,81,48.0056,91.6419,17.8,6.64
361,Impfondo,54,CG,1612482439,78,1.6381,18.0667,73.51,3.04
362,Fort Nelson,75,CA,1612482305,64,58.8053,-122.7002,-13.0,5.75
363,Ulladulla,75,AU,1612482554,65,-35.35,150.4667,79.0,3.44
364,São Raimundo Nonato,65,BR,1612482555,58,-9.0153,-42.6994,78.93,3.98
365,Acapulco de Juárez,1,MX,1612482428,70,16.8634,-99.8901,84.2,5.75
366,Dhārchula,98,IN,1612482555,60,29.85,80.5333,45.91,1.59
367,Kotma,0,IN,1612482555,39,23.2,81.9667,54.66,4.45
368,Carutapera,58,BR,1612482556,83,-1.195,-46.02,79.12,7.25
369,Buritama,75,BR,1612482556,85,-21.0661,-50.1472,77.43,4.7
370,Omboué,100,GA,1612482556,88,-1.5746,9.2618,78.15,4.32
371,Grindavik,75,IS,1612482173,87,63.8424,-22.4338,37.4,26.46
372,Panshi,0,CN,1612482556,94,42.9422,126.0561,11.28,6.26
373,Dudinka,98,RU,1612482557,84,69.4058,86.1778,-31.9,4.07
374,Birin,0,NP,1612482557,71,26.8865,88.0718,46.2,4.47
375,Atambua,100,ID,1612482484,88,-9.1061,124.8925,76.32,5.41
376,North Bend,1,US,1612482480,71,43.4065,-124.2243,51.8,16.11
377,Sisimiut,53,GL,1612482235,75,66.9395,-53.6735,5.74,13.69
378,Laas,0,IT,1612482178,86,46.6166,10.7002,39.0,3.58
379,Saint George,1,US,1612482193,24,37.1041,-113.5841,55.0,8.05
380,Mahanoro,38,MG,1612482558,89,-19.9,48.8,75.7,2.64
381,Scottsbluff,75,US,1612482558,38,41.8666,-103.6672,35.6,21.85
382,Berbera,0,SO,1612482559,63,10.4396,45.0143,71.31,3.6
383,Bairnsdale,82,AU,1612482559,52,-37.8333,147.6167,82.0,1.99
384,Bereda,100,ES,1612482559,100,43.2686,-7.5406,46.99,1.59
385,Āsmār,0,AF,1612482559,42,35.0333,71.3581,41.79,9.42
386,Korčula,20,HR,1612482559,100,42.9622,17.1369,44.6,2.3
387,Weiden,90,DE,1612482494,100,49.6775,12.1567,30.99,2.8
388,Hay River,99,CA,1612482220,63,60.8156,-115.7999,-20.2,12.66
389,Marsá Maţrūḩ,40,EG,1612482560,72,31.3525,27.2453,59.0,11.5
390,Burgeo,64,CA,1612482561,89,47.6167,-57.6152,39.31,11.36
391,Pangody,62,RU,1612482561,87,65.85,74.4859,-22.67,6.22
392,Meulaboh,45,ID,1612482218,86,4.1363,96.1285,75.27,4.81
393,Palu,99,ID,1612482561,71,-0.8917,119.8707,79.48,2.13
394,Uyemskiy,40,RU,1612482561,78,64.4743,40.8524,5.0,13.42
395,San Matías,71,BO,1612482562,87,-16.3667,-58.4,77.4,4.72
396,Umluj,14,SA,1612482212,53,25.0213,37.2685,69.3,6.58
397,Pskov,98,RU,1612482562,85,57.8136,28.3496,14.0,11.18
398,Rzeszów,90,PL,1612482562,86,50.0413,21.999,33.01,4.61
399,Rodrigues Alves,94,BR,1612482491,94,-7.738,-72.6509,75.97,2.73
400,Toledo,100,ES,1612482563,69,39.8333,-4.0,55.0,7.36
401,Kondopoga,100,RU,1612482563,79,62.2057,34.2614,10.4,11.18
402,Sortova,20,PA,1612482563,66,8.55,-82.65,86.0,9.22
403,Eirunepé,100,BR,1612482564,86,-6.6603,-69.8736,77.5,0.83
404,Beloha,66,MG,1612482241,77,-25.1667,45.05,78.31,4.07
405,Tombouctou,82,ML,1612482564,15,20.0,-3.0,74.25,6.35
406,Iberia,1,US,1612482564,82,29.9502,-91.7507,64.99,14.97
407,Price,1,US,1612482564,41,39.5994,-110.8107,35.6,13.8
408,Tupelo,90,US,1612482565,87,34.2576,-88.7034,53.6,11.5
409,Ružomberok,75,SK,1612482565,100,49.0748,19.3075,33.01,1.14
410,Broken Hill,75,AU,1612482281,48,-31.95,141.4333,64.4,10.36
411,Dawei,5,MM,1612482566,57,14.0833,98.2,70.32,4.0
412,Bajil,0,YE,1612482566,63,15.0584,43.2851,70.7,2.57
413,Vanimo,16,PG,1612482473,66,-2.6741,141.3028,84.99,2.89
414,Novonukutskiy,100,RU,1612482567,92,53.7002,102.7117,9.23,9.6
415,Gros Islet,75,LC,1612482567,73,14.0667,-60.95,80.6,10.36
416,Ugoofaaru,100,MV,1612482219,70,5.6667,73.0,81.32,6.17
417,Khandagayty,97,RU,1612482567,90,50.7333,92.05,2.89,0.2
418,Magadan,24,RU,1612482567,82,59.5667,150.8,-4.45,17.0
419,Chapais,1,CA,1612482246,79,49.7834,-74.8492,21.2,0.65
420,Bouloupari,75,NC,1612482568,78,-21.8667,166.05,82.4,13.8
421,Kayerkan,89,RU,1612482258,85,69.3497,87.7602,-27.67,1.01
422,Voh,41,NC,1612482568,78,-20.9667,164.7,81.86,8.59
423,Paratebueno,81,CO,1612482569,41,4.3758,-73.2155,87.42,1.45
424,Soyo,100,AO,1612482472,85,-6.1349,12.3689,80.33,7.81
425,‘Āhuimanu,75,US,1612482569,60,21.4447,-157.8378,71.6,13.8
426,Damietta,0,EG,1612482223,88,31.4165,31.8133,62.6,9.22
427,Saint-Pierre,75,RE,1612482199,69,-21.3393,55.4781,80.6,4.61
428,Madera,1,US,1612482367,60,37.1666,-119.8343,55.99,3.0
429,Saint Anthony,75,US,1612482230,62,45.0205,-93.218,19.4,13.8
430,Caravelas,2,BR,1612482255,81,-17.7125,-39.2481,77.59,7.2
431,Korla,14,CN,1612482443,82,41.7597,86.1469,24.26,3.36
432,Măstăcani,3,RO,1612482571,75,45.7833,28.0333,39.99,8.14
433,Zelenoborskiy,26,RU,1612482571,93,66.845,32.3622,1.92,5.68
434,Kamenka,100,RU,1612482571,98,51.3223,42.7678,39.0,14.47
435,Kumul,0,CN,1612482472,88,42.8,93.45,24.91,1.34
436,Bilibino,49,RU,1612482444,78,68.0546,166.4372,-16.19,9.4
437,Ixtapa,1,MX,1612482270,78,20.7,-105.2,73.4,10.36
438,Viedma,0,AR,1612482572,35,-40.8135,-62.9967,82.0,15.73
439,Tamandaré,9,BR,1612482572,81,-8.7597,-35.1047,78.73,9.98
440,Malya,26,TZ,1612482572,86,-2.9833,33.5167,64.63,2.51
441,Simplício Mendes,65,BR,1612482573,62,-7.8539,-41.9103,79.7,3.36
442,Perth,0,AU,1612482573,55,-31.9333,115.8333,64.0,13.8
443,Nong Chik,79,TH,1612482573,87,6.8436,101.178,73.47,7.92
444,Orikum,76,AL,1612482573,73,40.3253,19.4714,56.79,8.75
445,Nanortalik,96,GL,1612482183,78,60.1432,-45.2371,21.49,7.43
446,Aban,100,RU,1612482574,94,56.67,96.06,7.02,8.48
447,Kahului,75,US,1612482173,60,20.8947,-156.47,73.4,11.5
448,Merauke,96,ID,1612482235,84,-8.4667,140.3333,81.43,13.6
449,Düzce,38,TR,1612482575,71,40.8389,31.1639,52.16,4.63
450,Chokurdakh,49,RU,1612482194,87,70.6333,147.9167,-13.02,20.04
451,Tara,99,RU,1612482575,94,56.8944,74.371,8.04,5.97
452,Yumen,10,CN,1612482192,61,40.2833,97.2,28.71,15.19
453,Humaitá,74,BR,1612482575,76,-7.5061,-63.0208,81.1,2.08
454,Guarapari,0,BR,1612482576,83,-20.6667,-40.4975,79.0,16.11
455,Atar,84,MR,1612482190,28,20.5169,-13.0499,65.44,6.35
456,Usinsk,99,RU,1612482458,90,65.9939,57.5281,-6.99,15.03
457,Maceió,0,BR,1612482517,88,-9.6658,-35.7353,77.0,8.05
458,Semenivka,100,UA,1612482577,96,52.1783,32.5818,19.8,19.66
459,Walvis Bay,5,NA,1612482233,82,-22.9575,14.5053,64.99,4.61
460,Mabai,100,CN,1612482577,99,23.0128,104.4508,52.41,3.02
461,Ossora,96,RU,1612482464,93,59.2353,163.0719,10.63,19.04
462,Otjimbingwe,18,NA,1612482578,54,-22.35,16.1333,72.73,0.87
463,Plácido de Castro,86,BR,1612482224,93,-10.3353,-67.1856,76.87,2.93
464,Venice of the Philippines,100,PH,1612482578,78,4.6628,119.3928,81.16,8.97
465,Miles City,75,US,1612482578,40,46.4083,-105.8406,33.8,12.66
466,Baghdad,90,IQ,1612482440,63,33.3406,44.4009,59.0,12.66
467,Pangai,75,TO,1612482170,84,-19.8,-174.35,84.2,9.22
468,Longyearbyen,75,SJ,1612482146,67,78.2186,15.6401,17.6,13.8
469,Vostok,33,RU,1612482482,87,46.4856,135.8833,-14.96,6.13
470,Gilbués,70,BR,1612482579,78,-9.8317,-45.3439,76.3,2.48
471,Octeville,75,FR,1612482580,100,49.6261,-1.6435,48.99,6.91
472,Markova,78,UA,1612482580,96,48.6758,24.4138,29.1,4.74
473,Marzuq,0,YE,1612482580,60,14.4,46.4667,55.78,3.22
474,Juneau,75,US,1612482399,80,58.3019,-134.4197,30.2,9.22
475,Mīnāb,0,IR,1612482580,62,27.1467,57.0801,55.4,6.91
476,Karīmnagar,68,IN,1612482499,65,18.4333,79.15,58.41,4.45
477,Zaysan,100,KZ,1612482581,90,47.4667,84.8667,17.69,1.43
478,Coquimbo,75,CL,1612481895,82,-29.9533,-71.3436,60.8,9.22
479,Sīra,13,IN,1612482581,74,13.7453,76.9092,62.37,3.69
480,Martinsicuro,97,IT,1612482582,92,42.8811,13.9145,46.0,0.81
481,Puerto Escondido,40,MX,1612482237,74,15.85,-97.0667,82.4,4.07
482,Pisco,0,PE,1612482191,69,-13.7,-76.2167,75.2,19.57
483,Pangani,39,TZ,1612482582,84,-5.4333,38.9667,76.23,7.34
484,Tyul'gan,100,RU,1612482582,99,52.3405,56.166,34.03,9.4
485,Bjørnevatn,40,NO,1612482583,86,69.6672,29.9847,23.0,6.91
486,Petropavlovsk-Kamchatskiy,42,RU,1612482177,66,53.0452,158.6483,6.8,2.24
487,Camaná,62,PE,1612482471,74,-16.6228,-72.7111,71.51,4.29
488,Adrar,26,MR,1612482204,19,20.5022,-10.0711,71.02,9.75
489,Manokwari,99,ID,1612482584,75,-0.8667,134.0833,81.41,6.51
490,Bermejillo,20,MX,1612482584,7,25.8833,-103.6167,87.8,6.24
491,Kalmar,46,SE,1612482584,92,56.6616,16.3616,16.0,4.61
492,Ajdabiya,0,LY,1612482585,83,30.7554,20.2263,56.52,3.87
493,Mongomo,86,GQ,1612482585,93,1.6274,11.3135,69.84,2.35
494,Maridi,71,SS,1612482585,26,4.9158,29.4742,79.84,1.66
495,Kolosovka,99,RU,1612482585,94,56.4678,73.611,8.49,7.23
496,Baiyin,0,CN,1612482586,52,36.5583,104.2081,24.01,4.47
497,Xining,0,CN,1612482586,65,36.6167,101.7667,17.24,2.3
498,Ahipara,83,NZ,1612482247,60,-35.1667,173.1667,71.2,4.07
499,Zarinsk,100,RU,1612482586,93,53.7074,84.9493,6.03,2.68
500,Yayva,96,RU,1612482587,90,59.3303,57.2641,21.0,4.0
501,Anloga,40,GH,1612482587,84,5.7947,0.8973,84.2,10.36
502,Lakes Entrance,69,AU,1612482587,52,-37.8811,147.981,82.0,1.99
503,Bahía Blanca,0,AR,1612482587,33,-38.7196,-62.2724,75.58,10.54
504,Makkah al Mukarramah,64,SA,1612482588,74,21.4267,39.8261,71.47,9.46
505,Zapotiltic,1,MX,1612482588,69,19.6167,-103.4333,80.6,5.73
506,Murgab,14,TM,1612482588,60,37.4966,61.9714,41.0,9.22
507,Lüderitz,0,NA,1612482197,60,-26.6481,15.1594,67.78,19.13
508,Mogadishu,28,SO,1612482588,81,2.0371,45.3438,77.32,18.43
509,Ulaangom,65,MN,1612482589,86,49.9811,92.0667,-9.08,1.43
510,Komsomolets,100,KZ,1612482589,99,53.7453,62.0708,35.17,8.66
511,Tocopilla,70,CL,1612482474,62,-22.092,-70.1979,68.67,3.49
512,Manbij,0,SY,1612482589,81,36.5281,37.9549,46.4,10.18
513,Filingué,0,NE,1612482590,20,14.3521,3.3168,72.9,10.56
514,Salinópolis,76,BR,1612482222,84,-0.6136,-47.3561,79.84,10.94
515,Uyovu,40,TZ,1612482590,93,-3.2833,31.5258,63.25,4.0
516,Gweta,59,BW,1612482590,80,-20.1833,25.2333,72.46,8.05
517,Baltasi,100,RU,1612482590,96,56.3462,50.2062,33.31,9.44
518,Soto la Marina,0,MX,1612482591,72,23.7667,-98.2167,75.0,13.0
519,Aykhal,62,RU,1612482483,80,66.0,111.5,-36.56,4.32
520,Minot,1,US,1612482447,61,48.2325,-101.2963,6.8,24.16
521,Kieta,21,PG,1612482247,63,-6.2167,155.6333,86.02,5.59
522,Azare,0,NG,1612482592,23,11.6765,10.1948,68.77,9.57
523,Kargasok,70,RU,1612482469,92,59.0556,80.8572,-5.35,7.09
524,Qom,95,IR,1612482592,49,34.6401,50.8764,49.24,1.28
525,Daru,52,PG,1612482463,71,-9.0763,143.2092,84.79,12.35
526,Kismayo,0,SO,1612482593,83,-0.3582,42.5454,75.96,12.64
527,Coos Bay,1,US,1612482593,71,43.3665,-124.2179,51.8,16.11
528,Buraidah,40,SA,1612482593,42,26.326,43.975,66.2,8.05
529,Māngrol,0,IN,1612482593,60,21.1167,70.1167,64.71,12.28
530,Kuldīga,90,LV,1612482593,100,56.974,21.9572,26.6,9.22
531,Oranjemund,30,NA,1612482273,93,-28.55,16.4333,62.24,11.32
532,Santa Maria,40,BR,1612482566,78,-29.6842,-53.8069,71.6,3.44
533,Careiro da Várzea,20,BR,1612482594,74,-3.2003,-59.8119,82.4,4.61
534,St. George's,40,GD,1612482594,74,12.0564,-61.7485,80.6,11.5
535,Íos,0,GR,1612482595,82,36.7333,25.2833,55.99,4.61
536,Topeka,1,US,1612482372,41,39.0483,-95.678,35.6,16.11
537,Phuket,20,TH,1612482595,88,8.0,98.25,82.99,12.82
538,Lahat,98,ID,1612482595,92,-3.8,103.5333,73.26,1.9
539,Yangshan,92,CN,1612482595,96,28.7615,115.0287,49.87,1.36
540,Kīhei,75,US,1612482596,60,20.785,-156.4656,73.4,11.5
541,Aras,0,ES,1612482596,93,42.5617,-2.356,44.6,1.14
542,Gerāsh,0,IR,1612482272,50,27.6652,54.1371,47.91,1.7
543,Kachug,100,RU,1612482596,91,53.9606,105.8817,4.87,3.76
544,Elizabeth City,1,US,1612482597,42,36.2946,-76.2511,42.8,6.91
545,Hualmay,93,PE,1612482227,77,-11.0964,-77.6139,71.29,6.15
546,Barinas,93,VE,1612482597,55,8.6226,-70.2075,83.17,5.03
547,Naryan-Mar,60,RU,1612482172,87,67.6713,53.087,-16.65,12.3
548,Fuerte Olimpo,95,PY,1612482472,79,-21.0415,-57.8738,76.42,4.54
549,Broome,1,US,1612482247,55,42.2506,-75.833,33.8,3.44
550,Shaunavon,90,CA,1612482598,79,49.6501,-108.4181,19.4,12.66
551,Lahaina,75,US,1612482533,57,20.8783,-156.6825,75.2,17.27
552,Susurluk,0,TR,1612482598,100,39.9136,28.1578,44.6,1.97
553,Tromsø,75,NO,1612482477,80,69.6496,18.957,30.2,11.5
554,Abu Kamal,98,SY,1612482599,86,34.4506,40.9171,52.38,9.84
555,Veinticinco de Mayo,0,AR,1612482599,64,-35.4323,-60.1727,73.0,5.3
556,Qinggang,99,CN,1612482599,93,46.6833,126.0833,-4.04,7.23
557,Shimoda,75,JP,1612482246,65,34.6667,138.95,44.6,4.61
558,Vryburg,3,ZA,1612482600,90,-26.9566,24.7284,63.93,5.84
559,Şuhut,0,TR,1612482600,73,38.5311,30.5458,39.29,2.59
560,Chernyshevskiy,99,RU,1612482253,85,63.0128,112.4714,-33.65,3.51
561,Yabrūd,100,SY,1612482600,76,33.9674,36.6574,45.0,3.0
562,Hărău,15,RO,1612482601,83,45.9,22.95,40.05,1.57
563,Haines Junction,94,CA,1612482242,54,60.7522,-137.5108,-9.4,1.14
564,Tricase,40,IT,1612482601,100,39.9304,18.3553,55.0,2.3
565,Mandalgovi,62,MN,1612482205,85,45.7625,106.2708,15.85,8.9
566,Helena,90,US,1612482587,44,46.5927,-112.0361,35.6,13.8
567,Jiwani,0,PK,1612482602,51,25.05,61.7417,66.06,6.64
568,Maksatikha,63,RU,1612482602,94,57.797,35.8825,2.71,5.7
569,Ōfunato,75,JP,1612482603,80,39.0717,141.7167,24.8,6.91
570,Yulara,90,AU,1612482454,60,-25.2406,130.9889,68.0,11.5
571,Dicabisagan,100,PH,1612482603,84,17.0818,122.4157,73.17,9.66
572,Dali,4,CN,1612482485,72,25.7,100.1833,39.13,2.77
573,Mirny,100,RU,1612482209,84,62.5353,113.9611,-31.14,4.25
574,Lumby,100,CA,1612482604,95,50.2498,-118.969,37.0,0.11
575,Vardø,75,NO,1612482262,86,70.3705,31.1107,23.0,17.27
576,Altamira,97,BR,1612482283,82,-3.2033,-52.2064,77.47,1.61
577,Rincon,90,US,1612482604,43,32.296,-81.2354,53.6,9.22
578,Juazeiro,0,BR,1612482605,51,-9.4117,-40.4986,84.2,2.3
579,Maumere,100,ID,1612482466,78,-8.6199,122.2111,81.39,9.13
580,Boa Vista,75,BR,1612482605,78,2.8197,-60.6733,80.6,5.75
581,Isangel,75,VU,1612482214,74,-19.55,169.2667,86.0,3.44
582,Ustyuzhna,45,RU,1612482606,94,58.8394,36.4321,1.47,6.2
583,Paita,10,PE,1612482267,77,-5.0892,-81.1144,74.62,14.9
584,Guía de Isora,20,ES,1612482606,41,28.2115,-16.7795,61.0,8.05
585,San Giovanni in Fiore,55,IT,1612482606,40,39.2633,16.6996,55.0,3.56
586,Craig,90,US,1612482607,59,40.5153,-107.5464,28.4,17.27
587,Porto-Novo,40,BJ,1612482466,84,6.4965,2.6036,84.2,12.66
588,Moscow,75,RU,1612482350,86,55.7522,37.6156,19.99,13.42
589,Il’inskiy,90,RU,1612482607,93,55.619,38.1182,19.99,11.18
590,Jumla,87,NP,1612482187,84,29.2747,82.1838,32.61,7.72
591,Port-Gentil,40,GA,1612482608,89,-0.7193,8.7815,82.4,9.22
592,Talnakh,100,RU,1612482175,86,69.4865,88.3972,-22.43,1.45
593,Aripuanã,72,BR,1612482274,94,-9.1667,-60.6333,76.17,0.87
